{"type":"FeatureCollection","name":"bj_park2","crs":{"type":"name","properties":{"name":"urn:ogc:def:crs:OGC:1.3:CRS84"}},"features":[{"type":"Feature","properties":{"full_id":"r6092945","name":"小龙河公园","area3":787180},"geometry":{"type":"Point","coordinates":[117.01978173065945,40.06441705113787]}},{"type":"Feature","properties":{"full_id":"r6677567","name":"滨河森林公园","area3":1718563},"geometry":{"type":"Point","coordinates":[116.66552038695947,40.30466996375145]}},{"type":"Feature","properties":{"full_id":"r8769598","name":"北京园博园","area3":8646893},"geometry":{"type":"Point","coordinates":[116.1972152161092,39.88253464809476]}},{"type":"Feature","properties":{"full_id":"r8769600","name":"永定河休闲森林公园","area3":2027599},"geometry":{"type":"Point","coordinates":[116.18963337641215,39.893189726351714]}},{"type":"Feature","properties":{"full_id":"r9054321","name":"中山公园","area3":233213},"geometry":{"type":"Point","coordinates":[116.40058392940708,39.91682740550147]}},{"type":"Feature","properties":{"full_id":"r9084874","name":"门城湖公园","area3":719260},"geometry":{"type":"Point","coordinates":[116.1225294926372,39.949933234476575]}},{"type":"Feature","properties":{"full_id":"r9237440","name":"青龙湖公园","area3":755573},"geometry":{"type":"Point","coordinates":[116.09508400117723,39.80251431379479]}},{"type":"Feature","properties":{"full_id":"r9348599","name":"三家店蒲草湿地公园","area3":871841},"geometry":{"type":"Point","coordinates":[116.10215545653492,39.97637138546703]}},{"type":"Feature","properties":{"full_id":"r9532091","name":"太子林","area3":181821},"geometry":{"type":"Point","coordinates":[116.40649816131535,39.91708459666863]}},{"type":"Feature","properties":{"full_id":"r10476752","name":"玉东郊野公园(两山公园)","area3":1130347},"geometry":{"type":"Point","coordinates":[116.26275521170935,39.99819151190883]}},{"type":"Feature","properties":{"full_id":"r13157312","name":"龙潭西湖公园","area3":165476},"geometry":{"type":"Point","coordinates":[116.43611977802395,39.88570295370997]}},{"type":"Feature","properties":{"full_id":"r13431955","name":"狼垡城市森林公园","area3":5506634},"geometry":{"type":"Point","coordinates":[116.28155823084933,39.78334451377063]}},{"type":"Feature","properties":{"full_id":"r14115938","name":"顺义公园","area3":296497},"geometry":{"type":"Point","coordinates":[116.66832513380035,40.12687477406426]}},{"type":"Feature","properties":{"full_id":"r14295841","name":"良乡大学城公园·安苑","area3":211935},"geometry":{"type":"Point","coordinates":[116.18569426967964,39.72765134279896]}},{"type":"Feature","properties":{"full_id":"r14295842","name":"良乡大学城公园·红苑","area3":160854},"geometry":{"type":"Point","coordinates":[116.18304578043089,39.74310320078018]}},{"type":"Feature","properties":{"full_id":"r14367898","name":"良乡大学城公园·康苑","area3":350757},"geometry":{"type":"Point","coordinates":[116.17148601523785,39.72170447795314]}},{"type":"Feature","properties":{"full_id":"r14367921","name":"永兴河湿地公园","area3":906809},"geometry":{"type":"Point","coordinates":[116.32327442941393,39.687198945246976]}},{"type":"Feature","properties":{"full_id":"r14370704","name":"树村郊野公园","area3":586231},"geometry":{"type":"Point","coordinates":[116.31203772141521,40.03079673696627]}},{"type":"Feature","properties":{"full_id":"r14549539","name":"奥林匹克公园","area3":4530246},"geometry":{"type":"Point","coordinates":[116.40023366299584,40.00554453292957]}},{"type":"Feature","properties":{"full_id":"r15507174","name":"庆丰公园","area3":140732},"geometry":{"type":"Point","coordinates":[116.47029958075109,39.90877828967511]}},{"type":"Feature","properties":{"full_id":"r15853053","name":"兴旺公园","area3":379074},"geometry":{"type":"Point","coordinates":[116.32074155140384,39.74637444661577]}},{"type":"Feature","properties":{"full_id":"r16129378","name":"王平湿地公园","area3":758694},"geometry":{"type":"Point","coordinates":[116.01236402579559,39.98136809132103]}},{"type":"Feature","properties":{"full_id":"r16438857","name":"太平郊野公园","area3":1306346},"geometry":{"type":"Point","coordinates":[116.40137711508928,40.07000516656606]}},{"type":"Feature","properties":{"full_id":"r16438858","name":"奥北森林公园二期","area3":2351873},"geometry":{"type":"Point","coordinates":[116.39846272087387,40.0729377679418]}},{"type":"Feature","properties":{"full_id":"r17648478","name":"南口镇休闲文化公园","area3":505702},"geometry":{"type":"Point","coordinates":[116.14707578630377,40.252385554791346]}},{"type":"Feature","properties":{"full_id":"r19058904","name":"荷清园","area3":207189},"geometry":{"type":"Point","coordinates":[116.33183791484078,40.02148609657463]}},{"type":"Feature","properties":{"full_id":"r19108749","name":"永定门公园","area3":238805},"geometry":{"type":"Point","coordinates":[116.40553061405808,39.88201069931559]}},{"type":"Feature","properties":{"full_id":"w24476204","name":"日坛公园","area3":280179},"geometry":{"type":"Point","coordinates":[116.45013921456616,39.92138565802147]}},{"type":"Feature","properties":{"full_id":"w24824550","name":"天坛公园","area3":3354465},"geometry":{"type":"Point","coordinates":[116.41709904867571,39.888148879877996]}},{"type":"Feature","properties":{"full_id":"w24825400","name":"地坛公园","area3":392950},"geometry":{"type":"Point","coordinates":[116.42166708328554,39.96018318196528]}},{"type":"Feature","properties":{"full_id":"w24825443","name":"北京大观园","area3":169811},"geometry":{"type":"Point","coordinates":[116.36277972671537,39.877142563316355]}},{"type":"Feature","properties":{"full_id":"w24827108","name":"圆明园遗址公园","area3":5436302},"geometry":{"type":"Point","coordinates":[116.30974003654734,40.014254682745985]}},{"type":"Feature","properties":{"full_id":"w27997321","name":"博大公园","area3":323017},"geometry":{"type":"Point","coordinates":[116.50975800994678,39.80259881204485]}},{"type":"Feature","properties":{"full_id":"w29131054","name":"亦庄企业文化园","area3":2910476},"geometry":{"type":"Point","coordinates":[116.49785546127634,39.81646536568418]}},{"type":"Feature","properties":{"full_id":"w29201300","name":"中华民族园","area3":251895},"geometry":{"type":"Point","coordinates":[116.39730988220599,39.991841361459315]}},{"type":"Feature","properties":{"full_id":"w29201319","name":"中华民族园","area3":143737},"geometry":{"type":"Point","coordinates":[116.3984282567676,39.98674596193296]}},{"type":"Feature","properties":{"full_id":"w29201967","name":"景山公园","area3":380512},"geometry":{"type":"Point","coordinates":[116.40300038511847,39.93217220135234]}},{"type":"Feature","properties":{"full_id":"w29222903","name":"玉渊潭公园","area3":1854039},"geometry":{"type":"Point","coordinates":[116.32614318437602,39.92255736245311]}},{"type":"Feature","properties":{"full_id":"w29228773","name":"颐和园","area3":5141774},"geometry":{"type":"Point","coordinates":[116.27886425137456,39.99883692060394]}},{"type":"Feature","properties":{"full_id":"w30725406","name":"紫竹院公园","area3":698688},"geometry":{"type":"Point","coordinates":[116.32598787542828,39.94799646184947]}},{"type":"Feature","properties":{"full_id":"w30784976","name":"陶然亭公园","area3":921350},"geometry":{"type":"Point","coordinates":[116.38862154291877,39.88063621107649]}},{"type":"Feature","properties":{"full_id":"w30838574","name":"宣武艺园","area3":125363},"geometry":{"type":"Point","coordinates":[116.36578584817214,39.90088538862768]}},{"type":"Feature","properties":{"full_id":"w30879983","name":"太阳宫公园","area3":815303},"geometry":{"type":"Point","coordinates":[116.4626674192533,39.98130787206607]}},{"type":"Feature","properties":{"full_id":"w31759072","name":"运河文化广场","area3":665474},"geometry":{"type":"Point","coordinates":[116.6885559191715,39.9178353258585]}},{"type":"Feature","properties":{"full_id":"w33532171","name":"温榆河公园朝阳示范区","area3":3460694},"geometry":{"type":"Point","coordinates":[116.4761801780379,40.08118401486692]}},{"type":"Feature","properties":{"full_id":"w33607759","name":"龙潭公园","area3":664709},"geometry":{"type":"Point","coordinates":[116.44744213795164,39.88442625329628]}},{"type":"Feature","properties":{"full_id":"w33607958","name":"龙潭中湖公园","area3":648753},"geometry":{"type":"Point","coordinates":[116.43854185318747,39.8826962237075]}},{"type":"Feature","properties":{"full_id":"w33616744","name":"奥林匹克森林公园","area3":10493266},"geometry":{"type":"Point","coordinates":[116.39974097228645,40.02752319716005]}},{"type":"Feature","properties":{"full_id":"w33658131","name":"莲花池公园","area3":702707},"geometry":{"type":"Point","coordinates":[116.32156244068256,39.89793795168597]}},{"type":"Feature","properties":{"full_id":"w39702762","name":"人定湖公园","area3":137482},"geometry":{"type":"Point","coordinates":[116.39189789685443,39.96356829477925]}},{"type":"Feature","properties":{"full_id":"w42360322","name":"柳荫公园","area3":250859},"geometry":{"type":"Point","coordinates":[116.40861598925612,39.96716208592461]}},{"type":"Feature","properties":{"full_id":"w42361478","name":"青年湖公园","area3":293093},"geometry":{"type":"Point","coordinates":[116.40876711999024,39.961600114255646]}},{"type":"Feature","properties":{"full_id":"w42363479","name":"景藏健康公园","area3":281976},"geometry":{"type":"Point","coordinates":[116.41484381234419,40.04411754550041]}},{"type":"Feature","properties":{"full_id":"w42363915","name":"东升八家郊野公园南区","area3":319929},"geometry":{"type":"Point","coordinates":[116.34032889768656,40.02225978999634]}},{"type":"Feature","properties":{"full_id":"w42365224","name":"东升八家郊野公园东区","area3":514136},"geometry":{"type":"Point","coordinates":[116.34742869940277,40.02600422709398]}},{"type":"Feature","properties":{"full_id":"w42413039","name":"金隅南湖公园","area3":237696},"geometry":{"type":"Point","coordinates":[116.46708510041304,39.98793410535841]}},{"type":"Feature","properties":{"full_id":"w42415622","name":"方庄体育公园","area3":133332},"geometry":{"type":"Point","coordinates":[116.43501558785259,39.87317210313382]}},{"type":"Feature","properties":{"full_id":"w42416783","name":"北京国际雕塑公园","area3":495420},"geometry":{"type":"Point","coordinates":[116.25059108836156,39.91183680196103]}},{"type":"Feature","properties":{"full_id":"w42418515","name":"首钢松林公园","area3":323325},"geometry":{"type":"Point","coordinates":[116.21401493320644,39.91130469576212]}},{"type":"Feature","properties":{"full_id":"w42500210","name":"海子公园","area3":441963},"geometry":{"type":"Point","coordinates":[116.35547453458126,39.82226234810302]}},{"type":"Feature","properties":{"full_id":"w42651215","name":"念坛公园","area3":2286565},"geometry":{"type":"Point","coordinates":[116.31952821467027,39.71137778172699]}},{"type":"Feature","properties":{"full_id":"w42652958","name":"长陵","area3":212118},"geometry":{"type":"Point","coordinates":[116.25565573476011,40.30747636262839]}},{"type":"Feature","properties":{"full_id":"w42653023","name":"定陵","area3":150643},"geometry":{"type":"Point","coordinates":[116.22984609458061,40.30146793957587]}},{"type":"Feature","properties":{"full_id":"w42700727","name":"朝来森林公园","area3":802491},"geometry":{"type":"Point","coordinates":[116.46070150379386,40.0366366304097]}},{"type":"Feature","properties":{"full_id":"w42719051","name":"丰台科技园生态主题公园","area3":107863},"geometry":{"type":"Point","coordinates":[116.30149934204215,39.84528272441044]}},{"type":"Feature","properties":{"full_id":"w42724933","name":"丰益花园","area3":177873},"geometry":{"type":"Point","coordinates":[116.31944739975042,39.866768233185994]}},{"type":"Feature","properties":{"full_id":"w42746412","name":"老山城市休闲公园","area3":1222444},"geometry":{"type":"Point","coordinates":[116.23114147820637,39.920621877743095]}},{"type":"Feature","properties":{"full_id":"w47577001","name":"镇海公园","area3":119471},"geometry":{"type":"Point","coordinates":[116.48709494704421,39.834721265505834]}},{"type":"Feature","properties":{"full_id":"w47655363","name":"亢山广场","area3":101087},"geometry":{"type":"Point","coordinates":[116.25862606315759,40.22585799446522]}},{"type":"Feature","properties":{"full_id":"w47691783","name":"兴隆公园","area3":731064},"geometry":{"type":"Point","coordinates":[116.54036225364496,39.918966675470834]}},{"type":"Feature","properties":{"full_id":"w47705271","name":"房车世界露营公园","area3":357008},"geometry":{"type":"Point","coordinates":[116.21820990593828,39.82007837523836]}},{"type":"Feature","properties":{"full_id":"w48043015","name":"昌平公园","area3":194123},"geometry":{"type":"Point","coordinates":[116.2436498492294,40.22382311511777]}},{"type":"Feature","properties":{"full_id":"w55789284","name":"回龙观体育公园","area3":302350},"geometry":{"type":"Point","coordinates":[116.34863029073115,40.08340565047221]}},{"type":"Feature","properties":{"full_id":"w55806544","name":"回龙园","area3":149714},"geometry":{"type":"Point","coordinates":[116.331456338324,40.08864758970222]}},{"type":"Feature","properties":{"full_id":"w55892788","name":"郎各庄村休闲公园","area3":921847},"geometry":{"type":"Point","coordinates":[116.58824480157602,39.85075759241812]}},{"type":"Feature","properties":{"full_id":"w55894181","name":"海棠公园","area3":539938},"geometry":{"type":"Point","coordinates":[116.51125744399559,39.84208167415189]}},{"type":"Feature","properties":{"full_id":"w55894322","name":"老君堂公园","area3":1193052},"geometry":{"type":"Point","coordinates":[116.52550114686332,39.83784273408022]}},{"type":"Feature","properties":{"full_id":"w58641263","name":"大望京公园","area3":459820},"geometry":{"type":"Point","coordinates":[116.50063561894711,40.006288875818335]}},{"type":"Feature","properties":{"full_id":"w58683383","name":"暖山郊野公园","area3":104794},"geometry":{"type":"Point","coordinates":[116.61822614579482,39.89086351083127]}},{"type":"Feature","properties":{"full_id":"w75406508","name":"昭陵","area3":101328},"geometry":{"type":"Point","coordinates":[116.22450953885091,40.29691959508486]}},{"type":"Feature","properties":{"full_id":"w77966336","name":"中国人民抗日战争纪念雕塑园","area3":183154},"geometry":{"type":"Point","coordinates":[116.23355410324615,39.85454873441111]}},{"type":"Feature","properties":{"full_id":"w84336744","name":"近春园遗址","area3":116851},"geometry":{"type":"Point","coordinates":[116.32663895539407,40.00709651919184]}},{"type":"Feature","properties":{"full_id":"w103016635","name":"明城墙遗址公园","area3":115077},"geometry":{"type":"Point","coordinates":[116.43317371110219,39.90712198688738]}},{"type":"Feature","properties":{"full_id":"w107011074","name":"丰台花园","area3":140408},"geometry":{"type":"Point","coordinates":[116.29251174907957,39.87006387530674]}},{"type":"Feature","properties":{"full_id":"w108382017","name":"四得公园","area3":209882},"geometry":{"type":"Point","coordinates":[116.48155286352488,39.97801589577384]}},{"type":"Feature","properties":{"full_id":"w109969496","name":"梨园主题公园","area3":150483},"geometry":{"type":"Point","coordinates":[116.68474103278795,39.88002262602861]}},{"type":"Feature","properties":{"full_id":"w117957634","name":"小屯公园","area3":185104},"geometry":{"type":"Point","coordinates":[116.25628247953792,39.87645901571503]}},{"type":"Feature","properties":{"full_id":"w122348403","name":"京张铁路遗址公园","area3":236407},"geometry":{"type":"Point","coordinates":[116.34632660442811,39.98903000699629]}},{"type":"Feature","properties":{"full_id":"w128883577","name":"一亩园","area3":319994},"geometry":{"type":"Point","coordinates":[116.3018908285295,40.00571745832477]}},{"type":"Feature","properties":{"full_id":"w129187924","name":"全国农业展览馆;中国农业博物馆","area3":543852},"geometry":{"type":"Point","coordinates":[116.47185008123863,39.94622323386366]}},{"type":"Feature","properties":{"full_id":"w156322316","name":"地铁文化公园","area3":201894},"geometry":{"type":"Point","coordinates":[116.3327904239081,39.787382422552064]}},{"type":"Feature","properties":{"full_id":"w169703340","name":"丹青圃公园东园","area3":116200},"geometry":{"type":"Point","coordinates":[116.24408626650926,39.98119311232363]}},{"type":"Feature","properties":{"full_id":"w171308477","name":"永安公园","area3":112101},"geometry":{"type":"Point","coordinates":[116.23156817168105,40.21927202161136]}},{"type":"Feature","properties":{"full_id":"w178636037","name":"燕山公园","area3":251568},"geometry":{"type":"Point","coordinates":[115.96346089097872,39.732787808005675]}},{"type":"Feature","properties":{"full_id":"w189801200","name":"海淀公园","area3":507636},"geometry":{"type":"Point","coordinates":[116.30156508264152,39.99251642970643]}},{"type":"Feature","properties":{"full_id":"w202927079","name":"东小口森林公园","area3":2644442},"geometry":{"type":"Point","coordinates":[116.40035717837998,40.05482907338225]}},{"type":"Feature","properties":{"full_id":"w202929103","name":"半塔郊野公园","area3":605216},"geometry":{"type":"Point","coordinates":[116.40276623082205,40.095171724082476]}},{"type":"Feature","properties":{"full_id":"w206288061","name":"鸿博公园","area3":1397051},"geometry":{"type":"Point","coordinates":[116.48523272625788,39.8248316120217]}},{"type":"Feature","properties":{"full_id":"w207557305","name":"立水桥公园东区","area3":107527},"geometry":{"type":"Point","coordinates":[116.42058393698971,40.055521027798456]}},{"type":"Feature","properties":{"full_id":"w225619725","name":"东1时区公园","area3":115379},"geometry":{"type":"Point","coordinates":[116.62163631327682,39.90498140017284]}},{"type":"Feature","properties":{"full_id":"w231113730","name":"大运河森林公园","area3":8551601},"geometry":{"type":"Point","coordinates":[116.74987206362927,39.88088309740242]}},{"type":"Feature","properties":{"full_id":"w232511792","name":"天通艺苑","area3":208122},"geometry":{"type":"Point","coordinates":[116.44119110616565,40.0766374139222]}},{"type":"Feature","properties":{"full_id":"w232592486","name":"清河营郊野公园","area3":1040946},"geometry":{"type":"Point","coordinates":[116.4514204439516,40.058911114131014]}},{"type":"Feature","properties":{"full_id":"w232724483","name":"元大都城垣遗址公园","area3":108566},"geometry":{"type":"Point","coordinates":[116.37991467882011,39.98183896401858]}},{"type":"Feature","properties":{"full_id":"w232724485","name":"元大都城垣遗址公园","area3":142905},"geometry":{"type":"Point","coordinates":[116.43642322866155,39.981969481495554]}},{"type":"Feature","properties":{"full_id":"w232724487","name":"元大都城垣遗址公园","area3":154130},"geometry":{"type":"Point","coordinates":[116.40452302751193,39.98233550432443]}},{"type":"Feature","properties":{"full_id":"w232724488","name":"马甸公园","area3":140977},"geometry":{"type":"Point","coordinates":[116.38635742569184,39.97875017198273]}},{"type":"Feature","properties":{"full_id":"w232724490","name":"元大都城垣遗址公园","area3":253375},"geometry":{"type":"Point","coordinates":[116.3666626323453,39.9815672084618]}},{"type":"Feature","properties":{"full_id":"w232724492","name":"元大都城垣遗址公园","area3":234650},"geometry":{"type":"Point","coordinates":[116.36070900046892,39.97199035508513]}},{"type":"Feature","properties":{"full_id":"w232724666","name":"仰山公园","area3":617616},"geometry":{"type":"Point","coordinates":[116.41860969187545,40.02549408350682]}},{"type":"Feature","properties":{"full_id":"w232725157","name":"勇士营郊野公园","area3":361147},"geometry":{"type":"Point","coordinates":[116.45113517385813,40.04112118780415]}},{"type":"Feature","properties":{"full_id":"w232725160","name":"黄草湾郊野公园","area3":545522},"geometry":{"type":"Point","coordinates":[116.44180935125982,40.011674969160424]}},{"type":"Feature","properties":{"full_id":"w232729260","name":"月坛公园","area3":123023},"geometry":{"type":"Point","coordinates":[116.35871620503501,39.92219619016948]}},{"type":"Feature","properties":{"full_id":"w232763836","name":"润泽公园","area3":350070},"geometry":{"type":"Point","coordinates":[116.4449405884001,40.06436767168864]}},{"type":"Feature","properties":{"full_id":"w232764919","name":"太阳宫体育休闲公园","area3":307632},"geometry":{"type":"Point","coordinates":[116.45597461448193,39.986815016518094]}},{"type":"Feature","properties":{"full_id":"w232765128","name":"太阳宫公园","area3":331218},"geometry":{"type":"Point","coordinates":[116.4520295214684,39.98992731820621]}},{"type":"Feature","properties":{"full_id":"w232848816","name":"望湖公园","area3":401585},"geometry":{"type":"Point","coordinates":[116.46437281623317,40.017661568492265]}},{"type":"Feature","properties":{"full_id":"w232849303","name":"望京公园","area3":244038},"geometry":{"type":"Point","coordinates":[116.50491752205912,40.00088477862679]}},{"type":"Feature","properties":{"full_id":"w232849308","name":"望和公园北园","area3":215987},"geometry":{"type":"Point","coordinates":[116.45932488600843,40.005729246761916]}},{"type":"Feature","properties":{"full_id":"w233205070","name":"朝阳公园","area3":4025229},"geometry":{"type":"Point","coordinates":[116.48882969803135,39.950892395002626]}},{"type":"Feature","properties":{"full_id":"w233218915","name":"团结湖公园","area3":200145},"geometry":{"type":"Point","coordinates":[116.47100430969655,39.931479073705454]}},{"type":"Feature","properties":{"full_id":"w233220843","name":"郁金香温泉花园度假村","area3":434587},"geometry":{"type":"Point","coordinates":[116.56836793542297,40.01050056435066]}},{"type":"Feature","properties":{"full_id":"w234078264","name":"常营公园","area3":1185873},"geometry":{"type":"Point","coordinates":[116.58809281269181,39.941588091632234]}},{"type":"Feature","properties":{"full_id":"w235243285","name":"红领巾公园","area3":349807},"geometry":{"type":"Point","coordinates":[116.49936883053451,39.932450774347934]}},{"type":"Feature","properties":{"full_id":"w235243286","name":"健一公馆","area3":115679},"geometry":{"type":"Point","coordinates":[116.49489813952788,39.93258159049872]}},{"type":"Feature","properties":{"full_id":"w235270896","name":"中国儿童中心","area3":144190},"geometry":{"type":"Point","coordinates":[116.36791424647076,39.93962528362831]}},{"type":"Feature","properties":{"full_id":"w239309711","name":"宣颐公园","area3":382450},"geometry":{"type":"Point","coordinates":[116.45808213026845,39.82128982509599]}},{"type":"Feature","properties":{"full_id":"w240899462","name":"运河生态公园","area3":197561},"geometry":{"type":"Point","coordinates":[116.71477486535882,39.902591342936894]}},{"type":"Feature","properties":{"full_id":"w243381185","name":"百花公园东区","area3":112271},"geometry":{"type":"Point","coordinates":[116.56580919282189,39.902262592691216]}},{"type":"Feature","properties":{"full_id":"w244000596","name":"旺兴湖郊野公园南区","area3":516110},"geometry":{"type":"Point","coordinates":[116.44280864211787,39.82027865030127]}},{"type":"Feature","properties":{"full_id":"w244000597","name":"碧海公园","area3":464376},"geometry":{"type":"Point","coordinates":[116.4455199217158,39.81626637156686]}},{"type":"Feature","properties":{"full_id":"w251742087","name":"永乐广场","area3":105469},"geometry":{"type":"Point","coordinates":[116.80294116715535,39.71206689075924]}},{"type":"Feature","properties":{"full_id":"w254552892","name":"仁和公园","area3":320950},"geometry":{"type":"Point","coordinates":[116.67810993340278,40.11203242609916]}},{"type":"Feature","properties":{"full_id":"w268222180","name":"星光生态文化休闲公园","area3":199355},"geometry":{"type":"Point","coordinates":[116.35448792412298,39.7826053386704]}},{"type":"Feature","properties":{"full_id":"w283273972","name":"镇海寺郊野公园","area3":485909},"geometry":{"type":"Point","coordinates":[116.49342942102128,39.83494392610797]}},{"type":"Feature","properties":{"full_id":"w298125891","name":"京城体育休闲公园","area3":629418},"geometry":{"type":"Point","coordinates":[116.54133827366492,39.95162516735748]}},{"type":"Feature","properties":{"full_id":"w298125892","name":"星河湾四季会公园","area3":152802},"geometry":{"type":"Point","coordinates":[116.53417561461478,39.934142548420944]}},{"type":"Feature","properties":{"full_id":"w298125893","name":"古塔公园","area3":909295},"geometry":{"type":"Point","coordinates":[116.54168467308142,39.88463182318065]}},{"type":"Feature","properties":{"full_id":"w299172034","name":"晓月郊野公园","area3":451772},"geometry":{"type":"Point","coordinates":[116.21519163030082,39.862943314681615]}},{"type":"Feature","properties":{"full_id":"w299172035","name":"野花组合","area3":152518},"geometry":{"type":"Point","coordinates":[116.21870696230712,39.86831353558964]}},{"type":"Feature","properties":{"full_id":"w306324826","name":"西局玉璞园-西区","area3":245275},"geometry":{"type":"Point","coordinates":[116.30741647457276,39.878655254368155]}},{"type":"Feature","properties":{"full_id":"w312020668","name":"旺兴湖郊野公园北区","area3":723271},"geometry":{"type":"Point","coordinates":[116.45020358997911,39.82616814174616]}},{"type":"Feature","properties":{"full_id":"w312174169","name":"南海子公园","area3":8055325},"geometry":{"type":"Point","coordinates":[116.47224709791429,39.78288640778688]}},{"type":"Feature","properties":{"full_id":"w325138330","name":"北京南宫旅游景区","area3":562330},"geometry":{"type":"Point","coordinates":[116.15575833172397,39.80049549766314]}},{"type":"Feature","properties":{"full_id":"w332155815","name":"万芳亭公园","area3":174613},"geometry":{"type":"Point","coordinates":[116.38226932031012,39.864696060988955]}},{"type":"Feature","properties":{"full_id":"w334801856","name":"卧虎山公园","area3":156738},"geometry":{"type":"Point","coordinates":[115.97328539427563,39.70877568780652]}},{"type":"Feature","properties":{"full_id":"w337513662","name":"北小河公园","area3":302168},"geometry":{"type":"Point","coordinates":[116.46120573422355,40.01066064443225]}},{"type":"Feature","properties":{"full_id":"w342881095","name":"白浮泉湿地公园","area3":3687432},"geometry":{"type":"Point","coordinates":[116.2720037769223,40.2091455337481]}},{"type":"Feature","properties":{"full_id":"w347251729","name":"枫花园","area3":188148},"geometry":{"type":"Point","coordinates":[116.4872310389592,39.963248308992874]}},{"type":"Feature","properties":{"full_id":"w359389205","name":"五福堂公园-北一区","area3":110008},"geometry":{"type":"Point","coordinates":[116.43740931221467,39.81324492678393]}},{"type":"Feature","properties":{"full_id":"w365086583","name":"五福堂公园","area3":257842},"geometry":{"type":"Point","coordinates":[116.44057894630346,39.79787438585261]}},{"type":"Feature","properties":{"full_id":"w365803870","name":"曙光防灾教育公园","area3":405194},"geometry":{"type":"Point","coordinates":[116.28876874841765,39.95429377919694]}},{"type":"Feature","properties":{"full_id":"w365804695","name":"香水苑公园","area3":180267},"geometry":{"type":"Point","coordinates":[116.000483843819,40.47250610246046]}},{"type":"Feature","properties":{"full_id":"w365805019","name":"东湖公园","area3":2094675},"geometry":{"type":"Point","coordinates":[116.00319514539649,40.462792943765756]}},{"type":"Feature","properties":{"full_id":"w365805273","name":"昌平新城滨河森林公园","area3":1429345},"geometry":{"type":"Point","coordinates":[116.30603825660125,40.137757896100105]}},{"type":"Feature","properties":{"full_id":"w365806910","name":"康庄公园","area3":174104},"geometry":{"type":"Point","coordinates":[116.34879777082564,39.761502677413596]}},{"type":"Feature","properties":{"full_id":"w365807244","name":"金星公园","area3":112344},"geometry":{"type":"Point","coordinates":[116.34479702946388,39.76779863364502]}},{"type":"Feature","properties":{"full_id":"w365807806","name":"京城梨园","area3":1035699},"geometry":{"type":"Point","coordinates":[116.55776928752978,39.939795911677734]}},{"type":"Feature","properties":{"full_id":"w365809780","name":"小汤山文化广场","area3":137106},"geometry":{"type":"Point","coordinates":[116.40361112199638,40.18376144292398]}},{"type":"Feature","properties":{"full_id":"w365809782","name":"南口公园","area3":132077},"geometry":{"type":"Point","coordinates":[116.12451279503065,40.23986993606782]}},{"type":"Feature","properties":{"full_id":"w366464114","name":"北海公园","area3":1161178},"geometry":{"type":"Point","coordinates":[116.39518241533706,39.93457327492455]}},{"type":"Feature","properties":{"full_id":"w375056712","name":"首钢工业遗址公园","area3":3476996},"geometry":{"type":"Point","coordinates":[116.1613676504103,39.92254581501845]}},{"type":"Feature","properties":{"full_id":"w389998818","name":"卧龙公园","area3":202562},"geometry":{"type":"Point","coordinates":[116.64698052578619,40.14734208481124]}},{"type":"Feature","properties":{"full_id":"w392401569","name":"世妇会纪念水上公园","area3":326183},"geometry":{"type":"Point","coordinates":[116.63233839111611,40.307945387838245]}},{"type":"Feature","properties":{"full_id":"w395212186","name":"中关村森林公园","area3":3199697},"geometry":{"type":"Point","coordinates":[116.28839049214184,40.06769318140891]}},{"type":"Feature","properties":{"full_id":"w395704392","name":"未来科学城滨水公园","area3":3144785},"geometry":{"type":"Point","coordinates":[116.47265665951059,40.128009064628664]}},{"type":"Feature","properties":{"full_id":"w403383763","name":"中塔公园","area3":134013},"geometry":{"type":"Point","coordinates":[116.31366536151994,39.92415275892284]}},{"type":"Feature","properties":{"full_id":"w405624994","name":"永乐生态公园","area3":599666},"geometry":{"type":"Point","coordinates":[116.78517883925369,39.63523709312016]}},{"type":"Feature","properties":{"full_id":"w408779192","name":"明珠生态休闲公园","area3":133649},"geometry":{"type":"Point","coordinates":[116.79747442512242,40.36012757169283]}},{"type":"Feature","properties":{"full_id":"w412745914","name":"功德寺公园（南园）","area3":231550},"geometry":{"type":"Point","coordinates":[116.27081462534069,40.00530944991376]}},{"type":"Feature","properties":{"full_id":"w417520518","name":"圣泉公园","area3":227378},"geometry":{"type":"Point","coordinates":[115.90095826863804,39.57909075297769]}},{"type":"Feature","properties":{"full_id":"w419999949","name":"滨河公园","area3":229981},"geometry":{"type":"Point","coordinates":[116.33150747466595,39.77410478732252]}},{"type":"Feature","properties":{"full_id":"w435906188","name":"将府公园","area3":1215003},"geometry":{"type":"Point","coordinates":[116.52039933179944,39.97811762411871]}},{"type":"Feature","properties":{"full_id":"w439962818","name":"西湖园","area3":559077},"geometry":{"type":"Point","coordinates":[116.61414400725091,40.05483305610376]}},{"type":"Feature","properties":{"full_id":"w440052909","name":"京城森林公园西区","area3":385555},"geometry":{"type":"Point","coordinates":[116.53331993588752,39.939393027419534]}},{"type":"Feature","properties":{"full_id":"w443042212","name":"滨河公园","area3":102874},"geometry":{"type":"Point","coordinates":[116.84882356121116,40.388337412224736]}},{"type":"Feature","properties":{"full_id":"w444429357","name":"东坝公园","area3":2492919},"geometry":{"type":"Point","coordinates":[116.57863202727219,39.957193136672394]}},{"type":"Feature","properties":{"full_id":"w446665241","name":"长阳公园","area3":1069426},"geometry":{"type":"Point","coordinates":[116.18608763210597,39.76616145524376]}},{"type":"Feature","properties":{"full_id":"w446947328","name":"中直绿化基地","area3":478448},"geometry":{"type":"Point","coordinates":[116.43550622401536,40.097819218368144]}},{"type":"Feature","properties":{"full_id":"w451026781","name":"滨湖万米健身公园","area3":157988},"geometry":{"type":"Point","coordinates":[116.64324192324422,40.33381127581885]}},{"type":"Feature","properties":{"full_id":"w453481910","name":"世界花卉大观园","area3":435792},"geometry":{"type":"Point","coordinates":[116.35994386974257,39.840848275823554]}},{"type":"Feature","properties":{"full_id":"w453513854","name":"槐新公园","area3":1274331},"geometry":{"type":"Point","coordinates":[116.36751456509545,39.83142880747371]}},{"type":"Feature","properties":{"full_id":"w465634416","name":"御林古桑园","area3":291804},"geometry":{"type":"Point","coordinates":[116.55125942926995,39.64037996958556]}},{"type":"Feature","properties":{"full_id":"w482359245","name":"和义公园西区","area3":217407},"geometry":{"type":"Point","coordinates":[116.39650396626854,39.82840874372843]}},{"type":"Feature","properties":{"full_id":"w482359247","name":"和义公园东区","area3":151271},"geometry":{"type":"Point","coordinates":[116.40394579503423,39.82670796755177]}},{"type":"Feature","properties":{"full_id":"w493460000","name":"玲珑公园","area3":133147},"geometry":{"type":"Point","coordinates":[116.30165564365774,39.93536557705099]}},{"type":"Feature","properties":{"full_id":"w493610117","name":"古槐溪语","area3":141002},"geometry":{"type":"Point","coordinates":[116.66408749616159,40.41775722390526]}},{"type":"Feature","properties":{"full_id":"w494449834","name":"永定河文化广场","area3":359357},"geometry":{"type":"Point","coordinates":[116.11890596369824,39.94518429346208]}},{"type":"Feature","properties":{"full_id":"w500102560","name":"夏都公园","area3":879324},"geometry":{"type":"Point","coordinates":[115.98102148583379,40.459288407763125]}},{"type":"Feature","properties":{"full_id":"w504745142","name":"怀柔城市森林公园","area3":1362413},"geometry":{"type":"Point","coordinates":[116.6556536187183,40.318542962385706]}},{"type":"Feature","properties":{"full_id":"w506669254","name":"凤翔公园","area3":133987},"geometry":{"type":"Point","coordinates":[116.68837052933038,40.29844604535143]}},{"type":"Feature","properties":{"full_id":"w506669256","name":"鹿世界主题公园","area3":366750},"geometry":{"type":"Point","coordinates":[116.7083886619055,40.300564504506816]}},{"type":"Feature","properties":{"full_id":"w507016084","name":"南海子郊野公园-动感乐园区","area3":104713},"geometry":{"type":"Point","coordinates":[116.48699941099137,39.78643611231727]}},{"type":"Feature","properties":{"full_id":"w511018604","name":"冶仙公园","area3":200191},"geometry":{"type":"Point","coordinates":[116.87949390168892,40.40728786152804]}},{"type":"Feature","properties":{"full_id":"w513940415","name":"影湖楼公园","area3":823649},"geometry":{"type":"Point","coordinates":[116.25485904366938,39.9892850283402]}},{"type":"Feature","properties":{"full_id":"w537178922","name":"门头沟幸福广场","area3":160478},"geometry":{"type":"Point","coordinates":[116.11400737677842,39.89771664805627]}},{"type":"Feature","properties":{"full_id":"w537178957","name":"潭柘寺","area3":280045},"geometry":{"type":"Point","coordinates":[116.03715735677989,39.910109014001456]}},{"type":"Feature","properties":{"full_id":"w537184025","name":"杜仲公园","area3":713417},"geometry":{"type":"Point","coordinates":[116.5755384627085,39.89897041909859]}},{"type":"Feature","properties":{"full_id":"w538127234","name":"花博会主题公园","area3":533789},"geometry":{"type":"Point","coordinates":[116.57303173537758,40.12716587956124]}},{"type":"Feature","properties":{"full_id":"w541999689","name":"宋庄文化公园","area3":405901},"geometry":{"type":"Point","coordinates":[116.70341315577033,39.960890728574725]}},{"type":"Feature","properties":{"full_id":"w543833427","name":"巴沟山水园","area3":136635},"geometry":{"type":"Point","coordinates":[116.29561752678592,39.97610080821142]}},{"type":"Feature","properties":{"full_id":"w544153198","name":"船营公园","area3":177854},"geometry":{"type":"Point","coordinates":[116.27753055542101,39.97792674500691]}},{"type":"Feature","properties":{"full_id":"w544159078","name":"中坞公园","area3":513461},"geometry":{"type":"Point","coordinates":[116.26712328890727,39.98709489224156]}},{"type":"Feature","properties":{"full_id":"w544436719","name":"长春健身园","area3":107421},"geometry":{"type":"Point","coordinates":[116.2989276176493,39.970797381579374]}},{"type":"Feature","properties":{"full_id":"w547612702","name":"松棠花海","area3":101182},"geometry":{"type":"Point","coordinates":[116.66175004174966,40.32805471004848]}},{"type":"Feature","properties":{"full_id":"w550815353","name":"北京冬奥公园（永定河河岸公园）","area3":6613293},"geometry":{"type":"Point","coordinates":[116.15284079376872,39.91709866870581]}},{"type":"Feature","properties":{"full_id":"w550815459","name":"葡山公园","area3":150336},"geometry":{"type":"Point","coordinates":[116.1203010094579,39.93117084480769]}},{"type":"Feature","properties":{"full_id":"w552782931","name":"华欣湾公园","area3":184213},"geometry":{"type":"Point","coordinates":[116.64614008938956,40.30160213956206]}},{"type":"Feature","properties":{"full_id":"w552792733","name":"西会公园","area3":375589},"geometry":{"type":"Point","coordinates":[116.59623961549129,39.913658260118034]}},{"type":"Feature","properties":{"full_id":"w553641372","name":"八里桥音乐主题公园","area3":264538},"geometry":{"type":"Point","coordinates":[116.6238066231987,39.91608546819297]}},{"type":"Feature","properties":{"full_id":"w554386947","name":"马驹桥湿地公园二期","area3":4260823},"geometry":{"type":"Point","coordinates":[116.64005087915272,39.75850467526192]}},{"type":"Feature","properties":{"full_id":"w562435108","name":"东风公园","area3":874699},"geometry":{"type":"Point","coordinates":[116.52573092221772,39.96360789520712]}},{"type":"Feature","properties":{"full_id":"w569519023","name":"北坞公园","area3":648993},"geometry":{"type":"Point","coordinates":[116.26309043801099,39.992278446501984]}},{"type":"Feature","properties":{"full_id":"w570570420","name":"清源公园","area3":3124490},"geometry":{"type":"Point","coordinates":[116.31287374503133,39.739791672733006]}},{"type":"Feature","properties":{"full_id":"w573219087","name":"百子湾公园","area3":104203},"geometry":{"type":"Point","coordinates":[116.49432226685212,39.90183202862643]}},{"type":"Feature","properties":{"full_id":"w574247219","name":"茶棚公园","area3":400960},"geometry":{"type":"Point","coordinates":[116.25339936970815,39.98193678616808]}},{"type":"Feature","properties":{"full_id":"w587609324","name":"丹青圃公园西园","area3":260877},"geometry":{"type":"Point","coordinates":[116.23363859465111,39.98100165732252]}},{"type":"Feature","properties":{"full_id":"w608978924","name":"望和公园南园","area3":343338},"geometry":{"type":"Point","coordinates":[116.45525078202554,39.992654858180735]}},{"type":"Feature","properties":{"full_id":"w617813135","name":"和谐广场","area3":879513},"geometry":{"type":"Point","coordinates":[116.67558950418855,40.14570092980042]}},{"type":"Feature","properties":{"full_id":"w617818027","name":"顺义新城滨河森林公园-水岸风情园南区","area3":818895},"geometry":{"type":"Point","coordinates":[116.69062735700186,40.13210413943221]}},{"type":"Feature","properties":{"full_id":"w617828896","name":"顺义新城滨河森林公园-水岸风情园北区","area3":344176},"geometry":{"type":"Point","coordinates":[116.68305400301287,40.14021665273955]}},{"type":"Feature","properties":{"full_id":"w617920559","name":"减河公园","area3":208513},"geometry":{"type":"Point","coordinates":[116.66064130008095,40.14899700296335]}},{"type":"Feature","properties":{"full_id":"w617920561","name":"双兴公园","area3":218974},"geometry":{"type":"Point","coordinates":[116.66815301588744,40.15269496559882]}},{"type":"Feature","properties":{"full_id":"w617925349","name":"顺义新城滨河森林公园-趣味运动园","area3":2957908},"geometry":{"type":"Point","coordinates":[116.7386761552992,40.07825853299693]}},{"type":"Feature","properties":{"full_id":"w617927473","name":"顺义新城滨河森林公园","area3":4448113},"geometry":{"type":"Point","coordinates":[116.71972848045192,40.11735394487478]}},{"type":"Feature","properties":{"full_id":"w617927474","name":"顺义新城滨河森林公园-森林游憩园","area3":2297524},"geometry":{"type":"Point","coordinates":[116.7335456757026,40.10062376571097]}},{"type":"Feature","properties":{"full_id":"w618199370","name":"宋庄文化公园二期","area3":512872},"geometry":{"type":"Point","coordinates":[116.6950335527697,39.96296744272539]}},{"type":"Feature","properties":{"full_id":"w618199384","name":"京城槐园","area3":1530969},"geometry":{"type":"Point","coordinates":[116.58300922254492,39.94883087886692]}},{"type":"Feature","properties":{"full_id":"w618803087","name":"百善中心公园","area3":253224},"geometry":{"type":"Point","coordinates":[116.33306418299077,40.17755317325497]}},{"type":"Feature","properties":{"full_id":"w619132530","name":"马家湾湿地公园","area3":1428616},"geometry":{"type":"Point","coordinates":[116.56809114943914,39.84665648905219]}},{"type":"Feature","properties":{"full_id":"w632914058","name":"天元公园","area3":505783},"geometry":{"type":"Point","coordinates":[116.26727986770142,39.88249481558822]}},{"type":"Feature","properties":{"full_id":"w645644224","name":"路县故城遗址公园","area3":205863},"geometry":{"type":"Point","coordinates":[116.73173079422762,39.91961232113455]}},{"type":"Feature","properties":{"full_id":"w645644255","name":"东六环西辅路带状公园·丹黄珠翠","area3":142550},"geometry":{"type":"Point","coordinates":[116.71775437623282,39.90424981578752]}},{"type":"Feature","properties":{"full_id":"w645644258","name":"东六环西辅路带状公园·增彩延绿","area3":117872},"geometry":{"type":"Point","coordinates":[116.7171841874832,39.91099440554472]}},{"type":"Feature","properties":{"full_id":"w645644311","name":"亲子生态园","area3":102541},"geometry":{"type":"Point","coordinates":[116.70718997972763,39.92674561981799]}},{"type":"Feature","properties":{"full_id":"w645644319","name":"潞城中心公园","area3":229019},"geometry":{"type":"Point","coordinates":[116.71870554642214,39.92497764138059]}},{"type":"Feature","properties":{"full_id":"w645644322","name":"运潮减河公园","area3":793096},"geometry":{"type":"Point","coordinates":[116.73216052947319,39.92326717920476]}},{"type":"Feature","properties":{"full_id":"w653984456","name":"镜湖园","area3":835768},"geometry":{"type":"Point","coordinates":[116.73103004291572,39.90125569649167]}},{"type":"Feature","properties":{"full_id":"w655185054","name":"东升八家郊野公园西区","area3":290514},"geometry":{"type":"Point","coordinates":[116.33963158722588,40.025849711645144]}},{"type":"Feature","properties":{"full_id":"w655185060","name":"八家郊野公园","area3":412744},"geometry":{"type":"Point","coordinates":[116.34370802008517,40.01795432923662]}},{"type":"Feature","properties":{"full_id":"w655783942","name":"高鑫公园","area3":446770},"geometry":{"type":"Point","coordinates":[116.30575205361865,39.80339527267821]}},{"type":"Feature","properties":{"full_id":"w661680386","name":"妙云寺公园","area3":494541},"geometry":{"type":"Point","coordinates":[116.23804799894968,39.99569609491819]}},{"type":"Feature","properties":{"full_id":"w668807421","name":"红螺湖公园","area3":285895},"geometry":{"type":"Point","coordinates":[116.63213275000211,40.36636879087348]}},{"type":"Feature","properties":{"full_id":"w670405499","name":"七彩蝶园","area3":1088470},"geometry":{"type":"Point","coordinates":[116.57411683303353,40.184976108787126]}},{"type":"Feature","properties":{"full_id":"w676822272","name":"影都花海","area3":269139},"geometry":{"type":"Point","coordinates":[116.70528007294408,40.297221646341974]}},{"type":"Feature","properties":{"full_id":"w677594760","name":"农业嘉年华（东区）","area3":866810},"geometry":{"type":"Point","coordinates":[116.4138316193719,40.20935052619161]}},{"type":"Feature","properties":{"full_id":"w677594803","name":"农业嘉年华（西区）","area3":260287},"geometry":{"type":"Point","coordinates":[116.40935181543168,40.20511879669671]}},{"type":"Feature","properties":{"full_id":"w679644082","name":"田村文化体育广场","area3":456176},"geometry":{"type":"Point","coordinates":[116.24860074772971,39.94330949921508]}},{"type":"Feature","properties":{"full_id":"w680002285","name":"爱情海玫瑰园","area3":526994},"geometry":{"type":"Point","coordinates":[116.44244586262617,39.69618825309713]}},{"type":"Feature","properties":{"full_id":"w680002286","name":"世界月季主题园","area3":619658},"geometry":{"type":"Point","coordinates":[116.42695222845775,39.679735356877806]}},{"type":"Feature","properties":{"full_id":"w680002322","name":"榆垡文化广场","area3":187985},"geometry":{"type":"Point","coordinates":[116.31928445249153,39.515329404878806]}},{"type":"Feature","properties":{"full_id":"w680266108","name":"东郊森林公园","area3":2693854},"geometry":{"type":"Point","coordinates":[116.67267839413698,39.998772248618906]}},{"type":"Feature","properties":{"full_id":"w682594166","name":"龙腾世纪文化广场","area3":238941},"geometry":{"type":"Point","coordinates":[116.54750045281813,40.10845488445077]}},{"type":"Feature","properties":{"full_id":"w683573553","name":"同泽秋园","area3":166776},"geometry":{"type":"Point","coordinates":[116.14083847335712,40.109531432513485]}},{"type":"Feature","properties":{"full_id":"w683573580","name":"翠湖国家城市湿地公园","area3":2577907},"geometry":{"type":"Point","coordinates":[116.19363086485957,40.109888607517256]}},{"type":"Feature","properties":{"full_id":"w683654778","name":"北京世园公园","area3":5995439},"geometry":{"type":"Point","coordinates":[115.95685697571446,40.448131405317476]}},{"type":"Feature","properties":{"full_id":"w683654780","name":"世界葡萄博览园","area3":4503894},"geometry":{"type":"Point","coordinates":[115.87963770776182,40.47155033224298]}},{"type":"Feature","properties":{"full_id":"w683666125","name":"张郭庄休闲公园","area3":182780},"geometry":{"type":"Point","coordinates":[116.19454887670008,39.858613075402985]}},{"type":"Feature","properties":{"full_id":"w683867985","name":"老象峰","area3":2561274},"geometry":{"type":"Point","coordinates":[117.01873537183822,40.30215049399872]}},{"type":"Feature","properties":{"full_id":"w684188327","name":"顺义国际鲜花港","area3":1752593},"geometry":{"type":"Point","coordinates":[116.80313265474291,40.18756194290886]}},{"type":"Feature","properties":{"full_id":"w685071107","name":"富乐公园","area3":195953},"geometry":{"type":"Point","coordinates":[116.6543820507839,40.35779917366595]}},{"type":"Feature","properties":{"full_id":"w685610030","name":"江水泉公园","area3":563912},"geometry":{"type":"Point","coordinates":[115.98434438944314,40.48875064809841]}},{"type":"Feature","properties":{"full_id":"w685610036","name":"三里河湿地公园","area3":313412},"geometry":{"type":"Point","coordinates":[115.97301612120427,40.47550028634103]}},{"type":"Feature","properties":{"full_id":"w690500373","name":"大兴滨河森林公园","area3":2533454},"geometry":{"type":"Point","coordinates":[116.31473527680657,39.724540957971776]}},{"type":"Feature","properties":{"full_id":"w691433318","name":"通州公园东园","area3":132957},"geometry":{"type":"Point","coordinates":[116.67387237921582,39.9282663068602]}},{"type":"Feature","properties":{"full_id":"w691433333","name":"西海子公园","area3":469711},"geometry":{"type":"Point","coordinates":[116.67026357213462,39.92027158528826]}},{"type":"Feature","properties":{"full_id":"w691448099","name":"广渠路公园","area3":146514},"geometry":{"type":"Point","coordinates":[116.62419662136121,39.899827358205705]}},{"type":"Feature","properties":{"full_id":"w691448100","name":"郭家场村绿地公园","area3":164948},"geometry":{"type":"Point","coordinates":[116.6181356345454,39.90086127516821]}},{"type":"Feature","properties":{"full_id":"w691448101","name":"广渠路公园南区","area3":154459},"geometry":{"type":"Point","coordinates":[116.62565367864616,39.89713413619881]}},{"type":"Feature","properties":{"full_id":"w691448157","name":"温榆河滨河森林公园北区","area3":1930446},"geometry":{"type":"Point","coordinates":[116.65120706004384,39.947454448121775]}},{"type":"Feature","properties":{"full_id":"w692579029","name":"半壁店森林公园","area3":166690},"geometry":{"type":"Point","coordinates":[116.44671719742036,39.62204727796678]}},{"type":"Feature","properties":{"full_id":"w692579042","name":"东高地公园","area3":114963},"geometry":{"type":"Point","coordinates":[116.42086678969301,39.81721976430447]}},{"type":"Feature","properties":{"full_id":"w692579049","name":"爱琴海公园","area3":364858},"geometry":{"type":"Point","coordinates":[116.43025369075578,39.82163120069302]}},{"type":"Feature","properties":{"full_id":"w692579053","name":"红门佳荫公园","area3":122608},"geometry":{"type":"Point","coordinates":[116.41565964848368,39.83740587973849]}},{"type":"Feature","properties":{"full_id":"w692579054","name":"看丹公园","area3":757001},"geometry":{"type":"Point","coordinates":[116.27820328722503,39.83687137006975]}},{"type":"Feature","properties":{"full_id":"w692579055","name":"榆园","area3":258086},"geometry":{"type":"Point","coordinates":[116.26796394083182,39.84363464080446]}},{"type":"Feature","properties":{"full_id":"w692579062","name":"嘉囿城市休闲公园","area3":106494},"geometry":{"type":"Point","coordinates":[116.37546041717341,39.84739579043861]}},{"type":"Feature","properties":{"full_id":"w692579063","name":"小瓦窑公园","area3":139136},"geometry":{"type":"Point","coordinates":[116.2519436815364,39.89872469626296]}},{"type":"Feature","properties":{"full_id":"w692989851","name":"兰花文化休闲公园","area3":323530},"geometry":{"type":"Point","coordinates":[116.22459627252799,39.78983009912583]}},{"type":"Feature","properties":{"full_id":"w692989857","name":"房山森林城市主题公园","area3":734442},"geometry":{"type":"Point","coordinates":[116.22950422903749,39.78932580023269]}},{"type":"Feature","properties":{"full_id":"w696079377","name":"孤山寨大峡谷","area3":2021012},"geometry":{"type":"Point","coordinates":[115.63065189728147,39.63808580637182]}},{"type":"Feature","properties":{"full_id":"w700757536","name":"汉石桥湿地公园","area3":5174306},"geometry":{"type":"Point","coordinates":[116.815421410056,40.13068387130582]}},{"type":"Feature","properties":{"full_id":"w722919509","name":"路县故城遗址公园","area3":970679},"geometry":{"type":"Point","coordinates":[116.72501952032269,39.92145216056538]}},{"type":"Feature","properties":{"full_id":"w723003773","name":"小武基公园","area3":277096},"geometry":{"type":"Point","coordinates":[116.50089558456514,39.86855137898992]}},{"type":"Feature","properties":{"full_id":"w723729067","name":"新树村郊野公园","area3":114648},"geometry":{"type":"Point","coordinates":[116.30698214881254,40.037082540871026]}},{"type":"Feature","properties":{"full_id":"w742143313","name":"风车广场","area3":115093},"geometry":{"type":"Point","coordinates":[116.68203224492626,40.3791367411221]}},{"type":"Feature","properties":{"full_id":"w742143314","name":"太舟坞公园","area3":196011},"geometry":{"type":"Point","coordinates":[116.20435191800857,40.0549251433988]}},{"type":"Feature","properties":{"full_id":"w742143325","name":"孙村公园","area3":528035},"geometry":{"type":"Point","coordinates":[116.41090113542417,39.723490193272205]}},{"type":"Feature","properties":{"full_id":"w742143327","name":"孙村公园C区","area3":165845},"geometry":{"type":"Point","coordinates":[116.41452019477838,39.711768154892454]}},{"type":"Feature","properties":{"full_id":"w742143339","name":"平房公园","area3":499443},"geometry":{"type":"Point","coordinates":[116.54259158756928,39.933005852966055]}},{"type":"Feature","properties":{"full_id":"w742143356","name":"西郊砂石坑雨洪调蓄工程","area3":1085072},"geometry":{"type":"Point","coordinates":[116.22653722563989,39.92637652042698]}},{"type":"Feature","properties":{"full_id":"w744217223","name":"坡峰岭风景区","area3":1258383},"geometry":{"type":"Point","coordinates":[115.84612596006328,39.705981036188184]}},{"type":"Feature","properties":{"full_id":"w746980732","name":"衙门口城市森林公园东区","area3":203380},"geometry":{"type":"Point","coordinates":[116.21823112958462,39.89063577872419]}},{"type":"Feature","properties":{"full_id":"w746980733","name":"衙门口城市森林公园西区","area3":567681},"geometry":{"type":"Point","coordinates":[116.21404421416239,39.892202858396296]}},{"type":"Feature","properties":{"full_id":"w746980744","name":"保险产业园核心绿地","area3":168020},"geometry":{"type":"Point","coordinates":[116.1937755091345,39.94726634746654]}},{"type":"Feature","properties":{"full_id":"w746980745","name":"新安城市记忆公园","area3":298141},"geometry":{"type":"Point","coordinates":[116.18035288446156,39.916344216551714]}},{"type":"Feature","properties":{"full_id":"w747007524","name":"绿堤公园","area3":536264},"geometry":{"type":"Point","coordinates":[116.23297103556455,39.846273602848015]}},{"type":"Feature","properties":{"full_id":"w747007525","name":"白河城市森林公园","area3":1513911},"geometry":{"type":"Point","coordinates":[116.84679222868498,40.414087920598746]}},{"type":"Feature","properties":{"full_id":"w747007527","name":"贺新公园","area3":1102653},"geometry":{"type":"Point","coordinates":[116.3969801133493,40.06356596608277]}},{"type":"Feature","properties":{"full_id":"w747007529","name":"马驹桥湿地公园一期","area3":7320975},"geometry":{"type":"Point","coordinates":[116.64117555039938,39.7729848192013]}},{"type":"Feature","properties":{"full_id":"w747007532","name":"马坡千亩森林公园","area3":1245459},"geometry":{"type":"Point","coordinates":[116.642153840126,40.16399132643308]}},{"type":"Feature","properties":{"full_id":"w747332840","name":"365日梨文化主题公园","area3":689947},"geometry":{"type":"Point","coordinates":[116.93621862278452,40.56576173374761]}},{"type":"Feature","properties":{"full_id":"w751221914","name":"北宫森林公园","area3":1995832},"geometry":{"type":"Point","coordinates":[116.12406884028273,39.872378568482944]}},{"type":"Feature","properties":{"full_id":"w755582017","name":"东郊湿地公园","area3":7673731},"geometry":{"type":"Point","coordinates":[116.66804399329423,40.02631820598973]}},{"type":"Feature","properties":{"full_id":"w756192176","name":"怀柔科学城智慧公园","area3":185047},"geometry":{"type":"Point","coordinates":[116.69291662743842,40.38582983555877]}},{"type":"Feature","properties":{"full_id":"w756192178","name":"怀柔科学城智慧公园","area3":381238},"geometry":{"type":"Point","coordinates":[116.70515059468607,40.393791627920955]}},{"type":"Feature","properties":{"full_id":"w758459620","name":"颐和园西侧三角地绿化","area3":112453},"geometry":{"type":"Point","coordinates":[116.26756918268788,40.000619461331084]}},{"type":"Feature","properties":{"full_id":"w772701599","name":"白云峡风景区","area3":194208},"geometry":{"type":"Point","coordinates":[116.82054311852569,40.62381006664774]}},{"type":"Feature","properties":{"full_id":"w779484573","name":"红星集体农庄纪念公园","area3":159264},"geometry":{"type":"Point","coordinates":[116.46673413481449,39.7707142323274]}},{"type":"Feature","properties":{"full_id":"w779484576","name":"瀛海足球主题公园","area3":376623},"geometry":{"type":"Point","coordinates":[116.48176263858042,39.762527526928835]}},{"type":"Feature","properties":{"full_id":"w779484590","name":"瀛海休闲体育公园","area3":229908},"geometry":{"type":"Point","coordinates":[116.46881215357017,39.76241026171094]}},{"type":"Feature","properties":{"full_id":"w779484621","name":"市民公园","area3":151750},"geometry":{"type":"Point","coordinates":[116.43053574575923,39.78603008533595]}},{"type":"Feature","properties":{"full_id":"w779532223","name":"城市绿心森林公园","area3":10349480},"geometry":{"type":"Point","coordinates":[116.73434604037469,39.879322857142334]}},{"type":"Feature","properties":{"full_id":"w779541228","name":"东堡公园","area3":814745},"geometry":{"type":"Point","coordinates":[116.77112886322506,39.90150341929423]}},{"type":"Feature","properties":{"full_id":"w796670908","name":"绿海运动公园南区","area3":163555},"geometry":{"type":"Point","coordinates":[116.1359964054372,39.91666996598788]}},{"type":"Feature","properties":{"full_id":"w796670910","name":"绿海运动公园","area3":861972},"geometry":{"type":"Point","coordinates":[116.1325410686921,39.9238306813533]}},{"type":"Feature","properties":{"full_id":"w797321006","name":"绿林公园","area3":115452},"geometry":{"type":"Point","coordinates":[116.57028888824952,40.336812595210894]}},{"type":"Feature","properties":{"full_id":"w798193636","name":"影湖楼公园","area3":173082},"geometry":{"type":"Point","coordinates":[116.2547856616872,39.99339556081452]}},{"type":"Feature","properties":{"full_id":"w798193638","name":"南旱河公园","area3":133466},"geometry":{"type":"Point","coordinates":[116.22801411637633,39.982195581397065]}},{"type":"Feature","properties":{"full_id":"w798193639","name":"妙云寺公园梅园","area3":108782},"geometry":{"type":"Point","coordinates":[116.24659959998915,39.99341846607809]}},{"type":"Feature","properties":{"full_id":"w813024928","name":"太师屯世纪体育公园","area3":133467},"geometry":{"type":"Point","coordinates":[117.12393966211607,40.544468883945704]}},{"type":"Feature","properties":{"full_id":"w813057406","name":"王四营官庄公园北区","area3":672343},"geometry":{"type":"Point","coordinates":[116.51656780013406,39.88724640550505]}},{"type":"Feature","properties":{"full_id":"w813070254","name":"金盏森林公园","area3":3266214},"geometry":{"type":"Point","coordinates":[116.60734216924881,39.953060708182505]}},{"type":"Feature","properties":{"full_id":"w813070262","name":"富力又一城公园","area3":182327},"geometry":{"type":"Point","coordinates":[116.55980196933106,39.85282264788046]}},{"type":"Feature","properties":{"full_id":"w814051050","name":"奶东公园","area3":205999},"geometry":{"type":"Point","coordinates":[116.4874367067918,40.05258705543687]}},{"type":"Feature","properties":{"full_id":"w814051051","name":"何里栖地公园","area3":572061},"geometry":{"type":"Point","coordinates":[116.505265821084,40.05200679200183]}},{"type":"Feature","properties":{"full_id":"w814051091","name":"西红门城市生态休闲公园-西南区","area3":210700},"geometry":{"type":"Point","coordinates":[116.34096595591146,39.783620864845254]}},{"type":"Feature","properties":{"full_id":"w814051092","name":"西红门城市生态休闲公园-西北区","area3":197786},"geometry":{"type":"Point","coordinates":[116.34000976733925,39.786887248352215]}},{"type":"Feature","properties":{"full_id":"w814051093","name":"西红门城市生态休闲公园-中区","area3":556826},"geometry":{"type":"Point","coordinates":[116.3613226825123,39.784999144666884]}},{"type":"Feature","properties":{"full_id":"w814051095","name":"大兴生态文明教育公园","area3":624307},"geometry":{"type":"Point","coordinates":[116.36879847014643,39.78183343305268]}},{"type":"Feature","properties":{"full_id":"w814051098","name":"西毓顺公园","area3":781139},"geometry":{"type":"Point","coordinates":[116.42177767541028,39.777610517637136]}},{"type":"Feature","properties":{"full_id":"w814584204","name":"永顺公园","area3":292463},"geometry":{"type":"Point","coordinates":[116.63191859653897,39.92352044999554]}},{"type":"Feature","properties":{"full_id":"w814584205","name":"西马庄公园","area3":113071},"geometry":{"type":"Point","coordinates":[116.63017195997803,39.92712677201934]}},{"type":"Feature","properties":{"full_id":"w814584206","name":"刘庄公园","area3":494278},"geometry":{"type":"Point","coordinates":[116.68217200469215,39.96080545105792]}},{"type":"Feature","properties":{"full_id":"w814584207","name":"东郊创意园","area3":2414891},"geometry":{"type":"Point","coordinates":[116.68481031181607,39.967002077341405]}},{"type":"Feature","properties":{"full_id":"w814584211","name":"大兴国际机场兴旺公园","area3":676733},"geometry":{"type":"Point","coordinates":[116.44086408719235,39.53610899559383]}},{"type":"Feature","properties":{"full_id":"w814791974","name":"西小口公园南区","area3":352095},"geometry":{"type":"Point","coordinates":[116.35385916953628,40.05618670738821]}},{"type":"Feature","properties":{"full_id":"w814893377","name":"老山森林公园南区","area3":100639},"geometry":{"type":"Point","coordinates":[116.23908860289602,39.91681576122045]}},{"type":"Feature","properties":{"full_id":"w816898908","name":"梦幻紫海香草庄园","area3":875713},"geometry":{"type":"Point","coordinates":[116.30172916122794,39.50356415200926]}},{"type":"Feature","properties":{"full_id":"w817111073","name":"南海子郊野公园-综合配套服务区","area3":746665},"geometry":{"type":"Point","coordinates":[116.45481720868868,39.790605097684875]}},{"type":"Feature","properties":{"full_id":"w817271766","name":"张家湾公园北区","area3":3234979},"geometry":{"type":"Point","coordinates":[116.77875367507184,39.8326495018908]}},{"type":"Feature","properties":{"full_id":"w818273777","name":"东南郊湿地公园","area3":8754274},"geometry":{"type":"Point","coordinates":[116.64839598291283,39.73669772748537]}},{"type":"Feature","properties":{"full_id":"w818273779","name":"长子营湿地公园","area3":889384},"geometry":{"type":"Point","coordinates":[116.63121869201032,39.73118369018554]}},{"type":"Feature","properties":{"full_id":"w818630003","name":"西集公园","area3":388459},"geometry":{"type":"Point","coordinates":[116.82980324429349,39.805615564930974]}},{"type":"Feature","properties":{"full_id":"w818630007","name":"西集镇文化广场","area3":142769},"geometry":{"type":"Point","coordinates":[116.84519373194667,39.80410148549773]}},{"type":"Feature","properties":{"full_id":"w818639303","name":"大运河森林公园-高台平林","area3":224842},"geometry":{"type":"Point","coordinates":[116.77511185084886,39.852177613926195]}},{"type":"Feature","properties":{"full_id":"w818639315","name":"台湖万亩游憩园二期南区","area3":1654214},"geometry":{"type":"Point","coordinates":[116.6206637502774,39.82432304857784]}},{"type":"Feature","properties":{"full_id":"w818639316","name":"垛子公园","area3":3659833},"geometry":{"type":"Point","coordinates":[116.63489350889003,39.816525866943785]}},{"type":"Feature","properties":{"full_id":"w818639317","name":"台湖万亩游憩园二期东区","area3":4069276},"geometry":{"type":"Point","coordinates":[116.6480641778465,39.82266923490472]}},{"type":"Feature","properties":{"full_id":"w818639318","name":"台湖万亩游憩园二期北区","area3":821614},"geometry":{"type":"Point","coordinates":[116.62632473984941,39.83224960024467]}},{"type":"Feature","properties":{"full_id":"w818639319","name":"新印象台湖森林公园","area3":2382073},"geometry":{"type":"Point","coordinates":[116.65454179659781,39.83129214437207]}},{"type":"Feature","properties":{"full_id":"w818975984","name":"德仁务公园","area3":503802},"geometry":{"type":"Point","coordinates":[116.80742671134855,39.66676344981593]}},{"type":"Feature","properties":{"full_id":"w818975990","name":"通胡大街68号","area3":120300},"geometry":{"type":"Point","coordinates":[116.69951436854251,39.92564150468668]}},{"type":"Feature","properties":{"full_id":"w818976016","name":"东石公园","area3":479640},"geometry":{"type":"Point","coordinates":[116.58254319010558,39.82242445746445]}},{"type":"Feature","properties":{"full_id":"w818976017","name":"阡陌风韵休闲公园","area3":527394},"geometry":{"type":"Point","coordinates":[116.59777126123618,39.82406088579591]}},{"type":"Feature","properties":{"full_id":"w818976018","name":"金福湿地公园","area3":222782},"geometry":{"type":"Point","coordinates":[116.60798759698626,39.833347745122346]}},{"type":"Feature","properties":{"full_id":"w818985756","name":"于家务中心公园","area3":1414020},"geometry":{"type":"Point","coordinates":[116.69362101164599,39.73009301407369]}},{"type":"Feature","properties":{"full_id":"w818985782","name":"新地家园城市森林公园","area3":154030},"geometry":{"type":"Point","coordinates":[116.65985632926407,39.957098659922636]}},{"type":"Feature","properties":{"full_id":"w829238739","name":"西小口公园北区","area3":105244},"geometry":{"type":"Point","coordinates":[116.34849509583132,40.05956112767927]}},{"type":"Feature","properties":{"full_id":"w829238746","name":"朝来森林公园三期","area3":1262352},"geometry":{"type":"Point","coordinates":[116.45795940885502,40.04462121622198]}},{"type":"Feature","properties":{"full_id":"w829238747","name":"朝来森林公园三期北区","area3":267801},"geometry":{"type":"Point","coordinates":[116.45553024513501,40.04857996458155]}},{"type":"Feature","properties":{"full_id":"w829238748","name":"东小口城市休闲公园","area3":2242433},"geometry":{"type":"Point","coordinates":[116.38578985961217,40.05415824001425]}},{"type":"Feature","properties":{"full_id":"w834085435","name":"顺义新城生态休闲公园","area3":392364},"geometry":{"type":"Point","coordinates":[116.68462798685978,40.2226109691633]}},{"type":"Feature","properties":{"full_id":"w834085443","name":"金牛山公园","area3":204094},"geometry":{"type":"Point","coordinates":[116.6813287583543,40.22930311069816]}},{"type":"Feature","properties":{"full_id":"w834178053","name":"良香公园","area3":152979},"geometry":{"type":"Point","coordinates":[116.15282224299537,39.714918681301555]}},{"type":"Feature","properties":{"full_id":"w834502476","name":"琉璃河湿地公园","area3":1120349},"geometry":{"type":"Point","coordinates":[116.06456701519721,39.61019252735727]}},{"type":"Feature","properties":{"full_id":"w834502482","name":"京白梨大家族主题公园","area3":333893},"geometry":{"type":"Point","coordinates":[116.19488175447104,39.61397039722844]}},{"type":"Feature","properties":{"full_id":"w836317103","name":"房山新城滨水森林公园东区","area3":874623},"geometry":{"type":"Point","coordinates":[116.19735081768276,39.76190502593197]}},{"type":"Feature","properties":{"full_id":"w836317117","name":"长沟泉水国家湿地公园","area3":1934040},"geometry":{"type":"Point","coordinates":[115.89750016199973,39.59716816420657]}},{"type":"Feature","properties":{"full_id":"w836663651","name":"石经山风景区","area3":565380},"geometry":{"type":"Point","coordinates":[115.79050182558953,39.62456899602561]}},{"type":"Feature","properties":{"full_id":"w836663652","name":"静琬广场","area3":105529},"geometry":{"type":"Point","coordinates":[115.78502404249296,39.615013162233325]}},{"type":"Feature","properties":{"full_id":"w837714082","name":"雁栖河城市生态廊道","area3":1086216},"geometry":{"type":"Point","coordinates":[116.68308052660895,40.36399480887827]}},{"type":"Feature","properties":{"full_id":"w837714083","name":"千亩花海","area3":143093},"geometry":{"type":"Point","coordinates":[116.70170125931125,40.30157471470141]}},{"type":"Feature","properties":{"full_id":"w839304504","name":"府前广场","area3":100948},"geometry":{"type":"Point","coordinates":[116.1497641619018,39.75204192983246]}},{"type":"Feature","properties":{"full_id":"w839541310","name":"沙河湿地公园","area3":11437417},"geometry":{"type":"Point","coordinates":[116.33305395865811,40.13630155560279]}},{"type":"Feature","properties":{"full_id":"w839776496","name":"廊桥河谷公园","area3":134137},"geometry":{"type":"Point","coordinates":[116.28273105292641,40.19875421433698]}},{"type":"Feature","properties":{"full_id":"w841136345","name":"良乡大学城公园·艺苑","area3":211408},"geometry":{"type":"Point","coordinates":[116.18314598602636,39.722451888811484]}},{"type":"Feature","properties":{"full_id":"w845122528","name":"京城森林公园东区","area3":358958},"geometry":{"type":"Point","coordinates":[116.53927862768157,39.93983844273736]}},{"type":"Feature","properties":{"full_id":"w845122531","name":"金田公园北区","area3":817597},"geometry":{"type":"Point","coordinates":[116.57036348195876,39.892112246952784]}},{"type":"Feature","properties":{"full_id":"w845122535","name":"金田公园南区","area3":1191268},"geometry":{"type":"Point","coordinates":[116.5697520175539,39.88620003771643]}},{"type":"Feature","properties":{"full_id":"w845122536","name":"白鹿公园","area3":374467},"geometry":{"type":"Point","coordinates":[116.56123614191745,39.88404649151304]}},{"type":"Feature","properties":{"full_id":"w845122538","name":"王四营官庄公园南区","area3":436122},"geometry":{"type":"Point","coordinates":[116.51673058781324,39.88398060362675]}},{"type":"Feature","properties":{"full_id":"w845122542","name":"横街子公园","area3":945138},"geometry":{"type":"Point","coordinates":[116.50209060260603,39.8297483457096]}},{"type":"Feature","properties":{"full_id":"w845122544","name":"亦新郊野公园西区","area3":106172},"geometry":{"type":"Point","coordinates":[116.52179145474344,39.8299644459888]}},{"type":"Feature","properties":{"full_id":"w845122545","name":"亦新郊野公园东区","area3":351689},"geometry":{"type":"Point","coordinates":[116.52983786507258,39.83383308835912]}},{"type":"Feature","properties":{"full_id":"w845122546","name":"旧宫城市森林公园西区","area3":293396},"geometry":{"type":"Point","coordinates":[116.44011866177877,39.79846051547795]}},{"type":"Feature","properties":{"full_id":"w845122550","name":"桃苑公园","area3":221707},"geometry":{"type":"Point","coordinates":[116.38941656264659,39.83371041484013]}},{"type":"Feature","properties":{"full_id":"w845122555","name":"御康公园","area3":405356},"geometry":{"type":"Point","coordinates":[116.28831483040014,39.82111174120135]}},{"type":"Feature","properties":{"full_id":"w845122558","name":"万丰公园","area3":486680},"geometry":{"type":"Point","coordinates":[116.29754136416584,39.88979309227022]}},{"type":"Feature","properties":{"full_id":"w845122559","name":"岳各庄城市休闲森林公园","area3":128871},"geometry":{"type":"Point","coordinates":[116.28816239055806,39.890601249869725]}},{"type":"Feature","properties":{"full_id":"w845122561","name":"郭庄子公园","area3":132385},"geometry":{"type":"Point","coordinates":[116.26567526249774,39.871233222135764]}},{"type":"Feature","properties":{"full_id":"w845979133","name":"平庄郊野公园","area3":290653},"geometry":{"type":"Point","coordinates":[116.24664005741033,39.949938459678705]}},{"type":"Feature","properties":{"full_id":"w848406830","name":"白盆窑公园","area3":127154},"geometry":{"type":"Point","coordinates":[116.33157962851107,39.82280583820992]}},{"type":"Feature","properties":{"full_id":"w848406841","name":"丽泽滨水文化公园","area3":222334},"geometry":{"type":"Point","coordinates":[116.32789874552775,39.862834435159336]}},{"type":"Feature","properties":{"full_id":"w848406842","name":"瓦窑文化公园","area3":245173},"geometry":{"type":"Point","coordinates":[116.24135607489099,39.875716554695515]}},{"type":"Feature","properties":{"full_id":"w848406845","name":"梨园城市公园","area3":308479},"geometry":{"type":"Point","coordinates":[116.6810119033203,39.87971933506415]}},{"type":"Feature","properties":{"full_id":"w848406848","name":"凤港河湿地(西鲁公园)","area3":2106318},"geometry":{"type":"Point","coordinates":[116.77243494105984,39.76351019404682]}},{"type":"Feature","properties":{"full_id":"w848406850","name":"云林芳歌公园","area3":139057},"geometry":{"type":"Point","coordinates":[116.41104281253673,39.83073393990627]}},{"type":"Feature","properties":{"full_id":"w858398015","name":"黑桥公园","area3":1173302},"geometry":{"type":"Point","coordinates":[116.54349038772779,40.00261261194894]}},{"type":"Feature","properties":{"full_id":"w858398018","name":"杜仲公园二期西区","area3":101165},"geometry":{"type":"Point","coordinates":[116.56976016189867,39.90229779521379]}},{"type":"Feature","properties":{"full_id":"w858398020","name":"田村城市休闲公园","area3":155324},"geometry":{"type":"Point","coordinates":[116.21690208792307,39.92604865053637]}},{"type":"Feature","properties":{"full_id":"w859951261","name":"阪泉体育公园","area3":9420485},"geometry":{"type":"Point","coordinates":[115.899824345396,40.489572166490134]}},{"type":"Feature","properties":{"full_id":"w859951282","name":"镇海寺郊野公园二期","area3":109940},"geometry":{"type":"Point","coordinates":[116.49155725862019,39.83256991096016]}},{"type":"Feature","properties":{"full_id":"w859951292","name":"惠水湾森林公园","area3":150853},"geometry":{"type":"Point","coordinates":[116.5046225191678,39.90903941102222]}},{"type":"Feature","properties":{"full_id":"w859951301","name":"聚贤公园","area3":820643},"geometry":{"type":"Point","coordinates":[116.42371440170305,39.81912771217456]}},{"type":"Feature","properties":{"full_id":"w859951302","name":"聚贤公园北区","area3":119969},"geometry":{"type":"Point","coordinates":[116.42277188962682,39.832241182901754]}},{"type":"Feature","properties":{"full_id":"w859951303","name":"五福堂生态文明公园","area3":372926},"geometry":{"type":"Point","coordinates":[116.40835078109876,39.78380563249546]}},{"type":"Feature","properties":{"full_id":"w859951307","name":"石各庄公园","area3":415140},"geometry":{"type":"Point","coordinates":[116.56808231666848,39.94011442195385]}},{"type":"Feature","properties":{"full_id":"w859951310","name":"常营体育公园","area3":231109},"geometry":{"type":"Point","coordinates":[116.61296766933613,39.929395838753855]}},{"type":"Feature","properties":{"full_id":"w859951323","name":"温泉公园","area3":162763},"geometry":{"type":"Point","coordinates":[116.18819680054602,40.055452779960696]}},{"type":"Feature","properties":{"full_id":"w859951327","name":"旺景公园","area3":212644},"geometry":{"type":"Point","coordinates":[116.25401997008987,39.906771199741236]}},{"type":"Feature","properties":{"full_id":"w862991912","name":"潞城药艺公园","area3":2444648},"geometry":{"type":"Point","coordinates":[116.78869475249904,39.89199087712961]}},{"type":"Feature","properties":{"full_id":"w862991913","name":"大运河水梦园湿地公园","area3":425870},"geometry":{"type":"Point","coordinates":[116.77527719063603,39.893259334456964]}},{"type":"Feature","properties":{"full_id":"w867009032","name":"通明湖公园","area3":1465734},"geometry":{"type":"Point","coordinates":[116.58589800102831,39.78452139279622]}},{"type":"Feature","properties":{"full_id":"w867200034","name":"台湖体育公园","area3":121501},"geometry":{"type":"Point","coordinates":[116.63572422351238,39.85878075104862]}},{"type":"Feature","properties":{"full_id":"w874510600","name":"闵庄公园","area3":149692},"geometry":{"type":"Point","coordinates":[116.26385989810237,39.97848111103073]}},{"type":"Feature","properties":{"full_id":"w877658139","name":"张家场悦畅园口袋公园","area3":112845},"geometry":{"type":"Point","coordinates":[116.20947877623941,39.760622904690536]}},{"type":"Feature","properties":{"full_id":"w877658141","name":"长阳体育公园","area3":184318},"geometry":{"type":"Point","coordinates":[116.20886648514136,39.76707881353314]}},{"type":"Feature","properties":{"full_id":"w877658147","name":"良乡大学城公园·科苑","area3":151523},"geometry":{"type":"Point","coordinates":[116.18571656578179,39.73952827295058]}},{"type":"Feature","properties":{"full_id":"w877658148","name":"良乡大学城公园·文苑","area3":184815},"geometry":{"type":"Point","coordinates":[116.18579563750625,39.73474147978088]}},{"type":"Feature","properties":{"full_id":"w877661779","name":"休闲健身广场","area3":119649},"geometry":{"type":"Point","coordinates":[116.19882843135619,39.929993229607895]}},{"type":"Feature","properties":{"full_id":"w880688917","name":"东郊森林公园","area3":4530765},"geometry":{"type":"Point","coordinates":[116.673532715883,39.984089697293285]}},{"type":"Feature","properties":{"full_id":"w885362559","name":"狼垡公园","area3":108055},"geometry":{"type":"Point","coordinates":[116.2885150340666,39.79827849946355]}},{"type":"Feature","properties":{"full_id":"w885362566","name":"北京中华文化园","area3":248380},"geometry":{"type":"Point","coordinates":[116.30134201148788,39.789951473533456]}},{"type":"Feature","properties":{"full_id":"w887745001","name":"瀛海休闲公园","area3":429878},"geometry":{"type":"Point","coordinates":[116.44710159733361,39.774184787385536]}},{"type":"Feature","properties":{"full_id":"w887745026","name":"德寿寺公园","area3":106563},"geometry":{"type":"Point","coordinates":[116.46699917046875,39.807970923346055]}},{"type":"Feature","properties":{"full_id":"w887754706","name":"兴华公园东区","area3":315696},"geometry":{"type":"Point","coordinates":[116.33786217209047,39.80290138566203]}},{"type":"Feature","properties":{"full_id":"w887754707","name":"兴华公园西区","area3":137426},"geometry":{"type":"Point","coordinates":[116.33296154437618,39.799934546112155]}},{"type":"Feature","properties":{"full_id":"w887754752","name":"白盆窑花园","area3":454799},"geometry":{"type":"Point","coordinates":[116.32585980901462,39.80884304095926]}},{"type":"Feature","properties":{"full_id":"w888000448","name":"豆各庄城市公园东园","area3":105112},"geometry":{"type":"Point","coordinates":[116.5741305538577,39.87292621995249]}},{"type":"Feature","properties":{"full_id":"w888350345","name":"公园","area3":293107},"geometry":{"type":"Point","coordinates":[116.25320746412706,40.065320946172925]}},{"type":"Feature","properties":{"full_id":"w889441347","name":"运河人家","area3":104237},"geometry":{"type":"Point","coordinates":[116.74701680535235,39.89533880734096]}},{"type":"Feature","properties":{"full_id":"w889443765","name":"月牙河连心休闲公园","area3":236969},"geometry":{"type":"Point","coordinates":[116.61935018961722,39.89736417065358]}},{"type":"Feature","properties":{"full_id":"w891189274","name":"丽泽金融商务区城市运动休闲公园","area3":201917},"geometry":{"type":"Point","coordinates":[116.32453613233038,39.86589413629464]}},{"type":"Feature","properties":{"full_id":"w891226970","name":"金铃狮园","area3":145765},"geometry":{"type":"Point","coordinates":[116.55121327564179,39.95830433623144]}},{"type":"Feature","properties":{"full_id":"w901567256","name":"南旱河公园","area3":180471},"geometry":{"type":"Point","coordinates":[116.22938778172337,39.993889409791855]}},{"type":"Feature","properties":{"full_id":"w901567263","name":"石渠公园","area3":170454},"geometry":{"type":"Point","coordinates":[116.23987936181278,39.99914295408596]}},{"type":"Feature","properties":{"full_id":"w910674876","name":"南苑森林湿地公园","area3":2178368},"geometry":{"type":"Point","coordinates":[116.38698177579013,39.82486388042138]}},{"type":"Feature","properties":{"full_id":"w911097299","name":"昊天公园","area3":253980},"geometry":{"type":"Point","coordinates":[116.16133824888858,39.739941760397244]}},{"type":"Feature","properties":{"full_id":"w915309149","name":"夏各庄滨水森林公园","area3":813861},"geometry":{"type":"Point","coordinates":[117.19575628538543,40.12566352870725]}},{"type":"Feature","properties":{"full_id":"w921948038","name":"中国人民革命军事博物馆","area3":191080},"geometry":{"type":"Point","coordinates":[116.33020017455762,39.915165318503774]}},{"type":"Feature","properties":{"full_id":"w923411780","name":"原乡公园","area3":131524},"geometry":{"type":"Point","coordinates":[116.57587900889455,39.879699053567975]}},{"type":"Feature","properties":{"full_id":"w923411786","name":"川安公园","area3":257035},"geometry":{"type":"Point","coordinates":[116.58182090323125,39.87639737650179]}},{"type":"Feature","properties":{"full_id":"w923411811","name":"黑庄户四合公园","area3":583432},"geometry":{"type":"Point","coordinates":[116.614123635537,39.86897430045892]}},{"type":"Feature","properties":{"full_id":"w929569095","name":"仙西山风景区","area3":405513},"geometry":{"type":"Point","coordinates":[115.5110483001919,39.660737976000966]}},{"type":"Feature","properties":{"full_id":"w929570222","name":"乐谷银滩景区","area3":1045333},"geometry":{"type":"Point","coordinates":[115.67017891314907,39.62072156545618]}},{"type":"Feature","properties":{"full_id":"w930923197","name":"塔院城市森林公园北园","area3":137165},"geometry":{"type":"Point","coordinates":[116.37909045425647,40.00203535813059]}},{"type":"Feature","properties":{"full_id":"w932884331","name":"七孔桥花海主题公园","area3":1080293},"geometry":{"type":"Point","coordinates":[116.24915413251479,40.27720876851544]}},{"type":"Feature","properties":{"full_id":"w934500720","name":"一汽丰田TNGA驾控体验公园","area3":131978},"geometry":{"type":"Point","coordinates":[116.51458735672124,40.084065295605434]}},{"type":"Feature","properties":{"full_id":"w936332453","name":"良乡大学城公园·体苑","area3":132963},"geometry":{"type":"Point","coordinates":[116.18048173679351,39.74674994850355]}},{"type":"Feature","properties":{"full_id":"w938908058","name":"国色天香","area3":488728},"geometry":{"type":"Point","coordinates":[116.57296339034579,40.293808589299346]}},{"type":"Feature","properties":{"full_id":"w939968454","name":"盛世南宫影视文化城","area3":553911},"geometry":{"type":"Point","coordinates":[116.46111208245274,39.740279367318166]}},{"type":"Feature","properties":{"full_id":"w939968499","name":"采育公园","area3":177887},"geometry":{"type":"Point","coordinates":[116.63261379561773,39.66900074288741]}},{"type":"Feature","properties":{"full_id":"w939968502","name":"安南湿地环保主题公园","area3":436383},"geometry":{"type":"Point","coordinates":[116.46935979448743,39.738415247077974]}},{"type":"Feature","properties":{"full_id":"w940687073","name":"永泰绿色生态园","area3":244712},"geometry":{"type":"Point","coordinates":[116.37207278304692,40.046738184362695]}},{"type":"Feature","properties":{"full_id":"w940755375","name":"何里栖地公园南区","area3":254165},"geometry":{"type":"Point","coordinates":[116.5079070880625,40.045456737987365]}},{"type":"Feature","properties":{"full_id":"w940755412","name":"黄元井-六甲房村头公园","area3":527789},"geometry":{"type":"Point","coordinates":[115.85752446794108,39.59545614845674]}},{"type":"Feature","properties":{"full_id":"w940755413","name":"张庄村头公园","area3":197151},"geometry":{"type":"Point","coordinates":[116.09371969406246,39.74919434570389]}},{"type":"Feature","properties":{"full_id":"w940767021","name":"中国古老月季文化园","area3":803321},"geometry":{"type":"Point","coordinates":[116.41445107954816,39.626369683886765]}},{"type":"Feature","properties":{"full_id":"w940767022","name":"北臧村镇郊野公园","area3":670000},"geometry":{"type":"Point","coordinates":[116.236732049125,39.683848339162665]}},{"type":"Feature","properties":{"full_id":"w940767026","name":"官牛坊村城市景观型森林公园","area3":403543},"geometry":{"type":"Point","coordinates":[116.3945836536111,40.1710178402528]}},{"type":"Feature","properties":{"full_id":"w940767027","name":"马坊新华联慧谷城市森林公园","area3":146402},"geometry":{"type":"Point","coordinates":[117.01878497784114,40.073531776307206]}},{"type":"Feature","properties":{"full_id":"w943498821","name":"安华街公园","area3":233620},"geometry":{"type":"Point","coordinates":[116.53131342007923,40.088096325995956]}},{"type":"Feature","properties":{"full_id":"w943810860","name":"温榆河公园·未来智谷","area3":837378},"geometry":{"type":"Point","coordinates":[116.47892179126806,40.10501304492236]}},{"type":"Feature","properties":{"full_id":"w943916990","name":"功德寺公园（东园）","area3":109670},"geometry":{"type":"Point","coordinates":[116.2731548939701,40.009343928103895]}},{"type":"Feature","properties":{"full_id":"w943916992","name":"西郊机场周边区域绿化建设","area3":183898},"geometry":{"type":"Point","coordinates":[116.26071477855335,39.96452979934878]}},{"type":"Feature","properties":{"full_id":"w945406392","name":"上泽公园","area3":124946},"geometry":{"type":"Point","coordinates":[116.31637498437102,39.75774056602338]}},{"type":"Feature","properties":{"full_id":"w945518835","name":"金海公园","area3":198002},"geometry":{"type":"Point","coordinates":[116.41745006651033,39.76583675361669]}},{"type":"Feature","properties":{"full_id":"w945518836","name":"团河行宫遗址公园","area3":424587},"geometry":{"type":"Point","coordinates":[116.38517263761509,39.75353415376952]}},{"type":"Feature","properties":{"full_id":"w945753327","name":"宜德源田野文化园","area3":446836},"geometry":{"type":"Point","coordinates":[116.40581126942237,39.62527401235662]}},{"type":"Feature","properties":{"full_id":"w948453343","name":"小清河露营公园","area3":300313},"geometry":{"type":"Point","coordinates":[116.20268475282293,39.74576002680514]}},{"type":"Feature","properties":{"full_id":"w949006954","name":"房山新城滨水森林公园","area3":506770},"geometry":{"type":"Point","coordinates":[116.20326312870891,39.73628204728311]}},{"type":"Feature","properties":{"full_id":"w949240587","name":"天竺公园","area3":523636},"geometry":{"type":"Point","coordinates":[116.58034934147686,40.0614363452447]}},{"type":"Feature","properties":{"full_id":"w952696024","name":"个园","area3":126103},"geometry":{"type":"Point","coordinates":[116.5219813596349,39.8739932294764]}},{"type":"Feature","properties":{"full_id":"w953260464","name":"金中阳光森林公园","area3":117758},"geometry":{"type":"Point","coordinates":[116.22493032971182,39.94787574290381]}},{"type":"Feature","properties":{"full_id":"w953994465","name":"密云新城滨河森林公园","area3":2975382},"geometry":{"type":"Point","coordinates":[116.81381053489811,40.34900217936942]}},{"type":"Feature","properties":{"full_id":"w958253903","name":"妫州牡丹园","area3":165381},"geometry":{"type":"Point","coordinates":[116.06922188259777,40.54667628023428]}},{"type":"Feature","properties":{"full_id":"w958461793","name":"珠泉喷玉主题公园","area3":129749},"geometry":{"type":"Point","coordinates":[116.43139735087084,40.5634184257957]}},{"type":"Feature","properties":{"full_id":"w960760115","name":"温榆河公园·故城记忆","area3":1164042},"geometry":{"type":"Point","coordinates":[116.5098885913613,40.11945363922648]}},{"type":"Feature","properties":{"full_id":"w961020519","name":"桃溪公园","area3":137795},"geometry":{"type":"Point","coordinates":[116.48328364312647,39.85140278146421]}},{"type":"Feature","properties":{"full_id":"w961020523","name":"孙河郊野公园","area3":295941},"geometry":{"type":"Point","coordinates":[116.54515834342564,40.04779829665641]}},{"type":"Feature","properties":{"full_id":"w961072610","name":"画眉山滨水公园","area3":245518},"geometry":{"type":"Point","coordinates":[116.21349482253163,40.05409919620269]}},{"type":"Feature","properties":{"full_id":"w961888420","name":"滨河花园","area3":102336},"geometry":{"type":"Point","coordinates":[116.51316867465904,39.97690682424383]}},{"type":"Feature","properties":{"full_id":"w962102789","name":"奥北森林公园一期","area3":633734},"geometry":{"type":"Point","coordinates":[116.40906274830398,40.082380328594894]}},{"type":"Feature","properties":{"full_id":"w966362874","name":"小瓦窑村休闲公园","area3":229769},"geometry":{"type":"Point","coordinates":[116.25381993347793,39.890460712823334]}},{"type":"Feature","properties":{"full_id":"w966364864","name":"经仪公园","area3":326442},"geometry":{"type":"Point","coordinates":[116.2306584211108,39.87850944542246]}},{"type":"Feature","properties":{"full_id":"w969578486","name":"北天堂公园北区","area3":536522},"geometry":{"type":"Point","coordinates":[116.26980904724537,39.80315825041302]}},{"type":"Feature","properties":{"full_id":"w970518646","name":"房山夕阳红公园","area3":472498},"geometry":{"type":"Point","coordinates":[116.02921175613263,39.72734279180321]}},{"type":"Feature","properties":{"full_id":"w970612457","name":"长育休闲公园","area3":114319},"geometry":{"type":"Point","coordinates":[115.97444741615186,39.71862803828504]}},{"type":"Feature","properties":{"full_id":"w971937954","name":"汇星苑城市森林公园","area3":101931},"geometry":{"type":"Point","coordinates":[116.5401603209964,39.92755952333211]}},{"type":"Feature","properties":{"full_id":"w971937962","name":"横街子公园南区","area3":166083},"geometry":{"type":"Point","coordinates":[116.5081010131141,39.82321450735343]}},{"type":"Feature","properties":{"full_id":"w971937989","name":"北天堂公园南区","area3":241849},"geometry":{"type":"Point","coordinates":[116.26866432497316,39.796590552628224]}},{"type":"Feature","properties":{"full_id":"w971938001","name":"坝河休闲公园","area3":284363},"geometry":{"type":"Point","coordinates":[116.53485534615173,39.97318674525866]}},{"type":"Feature","properties":{"full_id":"w973893060","name":"潮白河滨水公园","area3":114648},"geometry":{"type":"Point","coordinates":[116.85264866367055,39.866122974792965]}},{"type":"Feature","properties":{"full_id":"w979980228","name":"怪村亲子动物园","area3":143270},"geometry":{"type":"Point","coordinates":[116.11028313544746,39.80427776125437]}},{"type":"Feature","properties":{"full_id":"w980052137","name":"花乡公园","area3":965125},"geometry":{"type":"Point","coordinates":[116.32573471017741,39.81545320879839]}},{"type":"Feature","properties":{"full_id":"w980488325","name":"野鸭湖湿地公园","area3":7655938},"geometry":{"type":"Point","coordinates":[115.85515411982894,40.4192148019235]}},{"type":"Feature","properties":{"full_id":"w981637799","name":"宝山公园","area3":160911},"geometry":{"type":"Point","coordinates":[116.2265367262051,39.929222478231]}},{"type":"Feature","properties":{"full_id":"w983081673","name":"北京国际露营公园","area3":751988},"geometry":{"type":"Point","coordinates":[116.38857431118502,39.789069073150955]}},{"type":"Feature","properties":{"full_id":"w987393762","name":"冶仙塔文化休闲公园","area3":926849},"geometry":{"type":"Point","coordinates":[116.87748473065118,40.40370941982662]}},{"type":"Feature","properties":{"full_id":"w987393789","name":"百旺公园西区","area3":149028},"geometry":{"type":"Point","coordinates":[116.25967293302332,40.05163132644926]}},{"type":"Feature","properties":{"full_id":"w987659171","name":"延庆冬奥森林公园","area3":480432},"geometry":{"type":"Point","coordinates":[115.84349354999729,40.48352558929264]}},{"type":"Feature","properties":{"full_id":"w988639270","name":"清河之源滨水公园","area3":112397},"geometry":{"type":"Point","coordinates":[116.27810518755102,40.016581227911004]}},{"type":"Feature","properties":{"full_id":"w988803316","name":"世纪森林公园","area3":1064653},"geometry":{"type":"Point","coordinates":[116.24276911667434,39.837644030815916]}},{"type":"Feature","properties":{"full_id":"w990439598","name":"元大都城垣遗址公园","area3":129921},"geometry":{"type":"Point","coordinates":[116.3913463918986,39.98216912024936]}},{"type":"Feature","properties":{"full_id":"w990439599","name":"元大都城垣遗址公园","area3":115516},"geometry":{"type":"Point","coordinates":[116.397373154518,39.98231565808491]}},{"type":"Feature","properties":{"full_id":"w990439601","name":"元大都城垣遗址公园","area3":167585},"geometry":{"type":"Point","coordinates":[116.41915587710575,39.98242328673752]}},{"type":"Feature","properties":{"full_id":"w990439602","name":"元大都城垣遗址公园","area3":110376},"geometry":{"type":"Point","coordinates":[116.42755997062434,39.98222482027336]}},{"type":"Feature","properties":{"full_id":"w992951517","name":"太平天池","area3":634795},"geometry":{"type":"Point","coordinates":[115.58959688984814,39.756840211025605]}},{"type":"Feature","properties":{"full_id":"w992951518","name":"欢乐猕猴谷","area3":755971},"geometry":{"type":"Point","coordinates":[115.59042282012351,39.73965709063456]}},{"type":"Feature","properties":{"full_id":"w993491022","name":"海棠春坞公园","area3":137969},"geometry":{"type":"Point","coordinates":[116.1420834459261,40.0764480230758]}},{"type":"Feature","properties":{"full_id":"w995275762","name":"温榆河公园朝阳段“温榆国风”区域","area3":352819},"geometry":{"type":"Point","coordinates":[116.4757196321656,40.07495907845603]}},{"type":"Feature","properties":{"full_id":"w995275783","name":"温榆河公园朝阳一期全龄森林运动南区","area3":864915},"geometry":{"type":"Point","coordinates":[116.46109685781776,40.055283877807504]}},{"type":"Feature","properties":{"full_id":"w998136780","name":"上方山国家森林公园","area3":41387762},"geometry":{"type":"Point","coordinates":[115.85019841699788,39.6774454082736]}},{"type":"Feature","properties":{"full_id":"w998685188","name":"新凤河湿地公园","area3":681873},"geometry":{"type":"Point","coordinates":[116.42198440280654,39.736697270665346]}},{"type":"Feature","properties":{"full_id":"w1001587212","name":"世界地热博览园","area3":319234},"geometry":{"type":"Point","coordinates":[116.16464893257519,39.80113324833245]}},{"type":"Feature","properties":{"full_id":"w1001662846","name":"槐树岭公园","area3":138600},"geometry":{"type":"Point","coordinates":[116.16974046881644,39.86697608142877]}},{"type":"Feature","properties":{"full_id":"w1002188560","name":"南宫露营运动乐园","area3":118113},"geometry":{"type":"Point","coordinates":[116.14999097256653,39.80436354887377]}},{"type":"Feature","properties":{"full_id":"w1002512919","name":"琉璃河湿地公园","area3":1326517},"geometry":{"type":"Point","coordinates":[116.02924214449905,39.61522139655017]}},{"type":"Feature","properties":{"full_id":"w1003337545","name":"百旺公园三期","area3":194438},"geometry":{"type":"Point","coordinates":[116.27224290252755,40.04842845327048]}},{"type":"Feature","properties":{"full_id":"w1008404118","name":"后桥梓农业销售点","area3":100178},"geometry":{"type":"Point","coordinates":[116.58012954489458,40.32006412218429]}},{"type":"Feature","properties":{"full_id":"w1008804990","name":"九龙口休闲公园","area3":101504},"geometry":{"type":"Point","coordinates":[116.34982483596418,39.810079226469156]}},{"type":"Feature","properties":{"full_id":"w1008831866","name":"海棠花溪","area3":124839},"geometry":{"type":"Point","coordinates":[116.49121330917907,39.99309043675343]}},{"type":"Feature","properties":{"full_id":"w1017845551","name":"温泉公园三期","area3":182871},"geometry":{"type":"Point","coordinates":[116.17909645700082,40.0577054704773]}},{"type":"Feature","properties":{"full_id":"w1020268548","name":"方庄城市公园","area3":110563},"geometry":{"type":"Point","coordinates":[116.45661719909758,39.867143282092]}},{"type":"Feature","properties":{"full_id":"w1021568339","name":"冬奥公园","area3":672012},"geometry":{"type":"Point","coordinates":[116.20765219414733,39.88915944341645]}},{"type":"Feature","properties":{"full_id":"w1029933415","name":"齐物潭公园","area3":575717},"geometry":{"type":"Point","coordinates":[116.17758737880575,40.06769228876874]}},{"type":"Feature","properties":{"full_id":"w1031292735","name":"温泉村党建主题公园","area3":174605},"geometry":{"type":"Point","coordinates":[116.16386568107062,40.061435787635084]}},{"type":"Feature","properties":{"full_id":"w1031292743","name":"温泉村文体活动中心","area3":457003},"geometry":{"type":"Point","coordinates":[116.1575089058135,40.06212605365425]}},{"type":"Feature","properties":{"full_id":"w1031890432","name":"达园","area3":344347},"geometry":{"type":"Point","coordinates":[116.30508571013821,40.00705254358791]}},{"type":"Feature","properties":{"full_id":"w1034518720","name":"六郎庄公园（一期）","area3":223229},"geometry":{"type":"Point","coordinates":[116.28567705229679,39.99326743240444]}},{"type":"Feature","properties":{"full_id":"w1036046150","name":"衙门口城市森林公园东区","area3":205505},"geometry":{"type":"Point","coordinates":[116.2259402503745,39.888705017512606]}},{"type":"Feature","properties":{"full_id":"w1047004211","name":"紫玉山庄西区","area3":166538},"geometry":{"type":"Point","coordinates":[116.41038555868987,40.01704201094052]}},{"type":"Feature","properties":{"full_id":"w1049471164","name":"圣莲山","area3":4311773},"geometry":{"type":"Point","coordinates":[115.73753161829745,39.8498449678733]}},{"type":"Feature","properties":{"full_id":"w1050562301","name":"西沙各庄村郊野公园","area3":807207},"geometry":{"type":"Point","coordinates":[116.40190075301838,40.125498642406455]}},{"type":"Feature","properties":{"full_id":"w1052622338","name":"老故事503文创园","area3":114174},"geometry":{"type":"Point","coordinates":[116.3912896514197,39.99884332924211]}},{"type":"Feature","properties":{"full_id":"w1052893571","name":"石渠公园","area3":477147},"geometry":{"type":"Point","coordinates":[116.24006333395828,40.00155179047508]}},{"type":"Feature","properties":{"full_id":"w1053521068","name":"杏石口路6号院","area3":158040},"geometry":{"type":"Point","coordinates":[116.27333700917492,39.95114319535612]}},{"type":"Feature","properties":{"full_id":"w1053566378","name":"锦绣大地观光园","area3":741124},"geometry":{"type":"Point","coordinates":[116.23911699455815,39.94364319928024]}},{"type":"Feature","properties":{"full_id":"w1054234143","name":"未来科学城生态休闲公园·马连店园","area3":405115},"geometry":{"type":"Point","coordinates":[116.34539726944458,40.1015656475733]}},{"type":"Feature","properties":{"full_id":"w1054800090","name":"南苑公园","area3":112168},"geometry":{"type":"Point","coordinates":[116.38512332682117,39.812368628592125]}},{"type":"Feature","properties":{"full_id":"w1057519451","name":"东沙河滨水公园","area3":368104},"geometry":{"type":"Point","coordinates":[116.26498600084665,40.16362922288337]}},{"type":"Feature","properties":{"full_id":"w1058100210","name":"张家湾公园北区","area3":2161193},"geometry":{"type":"Point","coordinates":[116.7739942079861,39.84574823634173]}},{"type":"Feature","properties":{"full_id":"w1058322430","name":"滨河公园","area3":434861},"geometry":{"type":"Point","coordinates":[116.54480350549788,40.15936041492013]}},{"type":"Feature","properties":{"full_id":"w1059899211","name":"世界休闲广场","area3":297857},"geometry":{"type":"Point","coordinates":[117.3023066780232,40.187910653952414]}},{"type":"Feature","properties":{"full_id":"w1064991420","name":"炮山城市森林公园","area3":241803},"geometry":{"type":"Point","coordinates":[116.14682702121307,39.96871547021473]}},{"type":"Feature","properties":{"full_id":"w1065112306","name":"丹青圃公园北园","area3":317459},"geometry":{"type":"Point","coordinates":[116.23901297355641,39.984704637933525]}},{"type":"Feature","properties":{"full_id":"w1068799244","name":"马坡城市森林公园","area3":156632},"geometry":{"type":"Point","coordinates":[116.67505485775675,40.18549200757767]}},{"type":"Feature","properties":{"full_id":"w1070145135","name":"阅景公园","area3":215338},"geometry":{"type":"Point","coordinates":[117.09192092634669,40.15796434483227]}},{"type":"Feature","properties":{"full_id":"w1070145136","name":"鸟首公园","area3":152347},"geometry":{"type":"Point","coordinates":[117.08839495578191,40.157833715174554]}},{"type":"Feature","properties":{"full_id":"w1071205713","name":"南彩银杏主题公园","area3":2471569},"geometry":{"type":"Point","coordinates":[116.72484804675453,40.15146855254257]}},{"type":"Feature","properties":{"full_id":"w1071432033","name":"西藏文化园","area3":403686},"geometry":{"type":"Point","coordinates":[116.15335862089619,40.222652345910376]}},{"type":"Feature","properties":{"full_id":"w1078128883","name":"乐佛山景区","area3":515833},"geometry":{"type":"Point","coordinates":[115.58611193041648,39.632416041758766]}},{"type":"Feature","properties":{"full_id":"w1078362406","name":"白水寺森林公园","area3":1770104},"geometry":{"type":"Point","coordinates":[115.95810152356766,39.756168536496844]}},{"type":"Feature","properties":{"full_id":"w1079650969","name":"棋盘山风景区（废弃）","area3":318659},"geometry":{"type":"Point","coordinates":[116.02249605780875,40.14090163405313]}},{"type":"Feature","properties":{"full_id":"w1083920197","name":"中央公园","area3":211195},"geometry":{"type":"Point","coordinates":[116.53147471329369,40.0563124657343]}},{"type":"Feature","properties":{"full_id":"w1083962446","name":"密云全民体育健身园","area3":255314},"geometry":{"type":"Point","coordinates":[116.84353416403943,40.37745630013034]}},{"type":"Feature","properties":{"full_id":"w1099878271","name":"北投购物公园","area3":126911},"geometry":{"type":"Point","coordinates":[116.40834373977336,39.98561124166841]}},{"type":"Feature","properties":{"full_id":"w1127660590","name":"龙门生态园天开寺景区","area3":799382},"geometry":{"type":"Point","coordinates":[115.90456591977318,39.62311172148667]}},{"type":"Feature","properties":{"full_id":"w1135872491","name":"奥运生态公园","area3":1062613},"geometry":{"type":"Point","coordinates":[116.64663543746695,40.025429551130216]}},{"type":"Feature","properties":{"full_id":"w1136265484","name":"五里桥公园","area3":181165},"geometry":{"type":"Point","coordinates":[116.63019706299507,39.93504777042695]}},{"type":"Feature","properties":{"full_id":"w1154996929","name":"上盖公园","area3":115984},"geometry":{"type":"Point","coordinates":[116.70026175822363,39.88635128184219]}},{"type":"Feature","properties":{"full_id":"w1160628192","name":"昊天碳中和公园","area3":141147},"geometry":{"type":"Point","coordinates":[116.16193732694083,39.73474549586327]}},{"type":"Feature","properties":{"full_id":"w1192334193","name":"天通苑生态休闲公园","area3":703049},"geometry":{"type":"Point","coordinates":[116.42670738045346,40.08775847007493]}},{"type":"Feature","properties":{"full_id":"w1192334194","name":"回龙观生态休闲公园","area3":296654},"geometry":{"type":"Point","coordinates":[116.34072007854671,40.096498279663315]}},{"type":"Feature","properties":{"full_id":"w1195021387","name":"谷山村","area3":407497},"geometry":{"type":"Point","coordinates":[116.0642564984293,39.99874460790101]}},{"type":"Feature","properties":{"full_id":"w1197595483","name":"杜仲公园二期西区","area3":115624},"geometry":{"type":"Point","coordinates":[116.57015810534382,39.90508067198998]}},{"type":"Feature","properties":{"full_id":"w1211308421","name":"光年城中央公园","area3":624911},"geometry":{"type":"Point","coordinates":[117.57219362554542,39.20915007547912]}},{"type":"Feature","properties":{"full_id":"w1239417308","name":"良乡蔬艺园","area3":252661},"geometry":{"type":"Point","coordinates":[116.1569075479966,39.69563685673723]}},{"type":"Feature","properties":{"full_id":"w1243105979","name":"后北营家园绿地","area3":132709},"geometry":{"type":"Point","coordinates":[116.74806045835597,39.920651571215885]}},{"type":"Feature","properties":{"full_id":"w1247482345","name":"玉镜朗鉴","area3":108171},"geometry":{"type":"Point","coordinates":[116.72635437257158,39.91417659340427]}},{"type":"Feature","properties":{"full_id":"w1247487360","name":"运河东大街休闲绿地","area3":302384},"geometry":{"type":"Point","coordinates":[116.76826860851551,39.90938797234741]}},{"type":"Feature","properties":{"full_id":"w1253896807","name":"首都公共艺术创作基地","area3":133006},"geometry":{"type":"Point","coordinates":[116.7188482435299,39.89334510820871]}},{"type":"Feature","properties":{"full_id":"w1255161519","name":"元代谷景区","area3":155691},"geometry":{"type":"Point","coordinates":[115.98431192511322,40.40871032000047]}},{"type":"Feature","properties":{"full_id":"w1268655487","name":"潞城党建公园","area3":235100},"geometry":{"type":"Point","coordinates":[116.78496092275446,39.870379056407]}},{"type":"Feature","properties":{"full_id":"w1271215082","name":"碓臼石景区","area3":464483},"geometry":{"type":"Point","coordinates":[116.10299265194699,40.37669610490312]}},{"type":"Feature","properties":{"full_id":"w1280462095","name":"北京莱恩堡国际酒庄","area3":1006567},"geometry":{"type":"Point","coordinates":[116.2165094335977,39.792297032763514]}},{"type":"Feature","properties":{"full_id":"w1290589871","name":"青龙湖水上乐园","area3":155298},"geometry":{"type":"Point","coordinates":[116.08751228244266,39.795058808052985]}},{"type":"Feature","properties":{"full_id":"w1293034024","name":"新礼公园","area3":234381},"geometry":{"type":"Point","coordinates":[116.80373618837932,39.865387566435146]}},{"type":"Feature","properties":{"full_id":"w1293034030","name":"东刘庄休闲公园","area3":178231},"geometry":{"type":"Point","coordinates":[116.81258092348682,39.86493078677748]}},{"type":"Feature","properties":{"full_id":"w1303123866","name":"明十三陵神道","area3":323636},"geometry":{"type":"Point","coordinates":[116.23294558509835,40.265659532837056]}},{"type":"Feature","properties":{"full_id":"w1322286003","name":"清河之洲","area3":396975},"geometry":{"type":"Point","coordinates":[116.31539250359909,40.02436347052242]}},{"type":"Feature","properties":{"full_id":"w1329794199","name":"大运河白浮泉遗址","area3":119244},"geometry":{"type":"Point","coordinates":[116.2641018598395,40.20144563963294]}},{"type":"Feature","properties":{"full_id":"w1339861480","name":"张家湾公园一期","area3":242882},"geometry":{"type":"Point","coordinates":[116.73543435776814,39.84530816291847]}},{"type":"Feature","properties":{"full_id":"w1379884580","name":"二河开21号艺术区","area3":228475},"geometry":{"type":"Point","coordinates":[116.31679670227881,40.021410711049256]}},{"type":"Feature","properties":{"full_id":"w1381402732","name":"丽泽体育公园","area3":181254},"geometry":{"type":"Point","coordinates":[116.32257043332784,39.86874791647196]}},{"type":"Feature","properties":{"full_id":"w1387438116","name":"黄渠公园","area3":106521},"geometry":{"type":"Point","coordinates":[116.57495400296752,39.933174797848025]}}]}