{"type":"FeatureCollection","name":"BXF_OBJ","crs":{"type":"name","properties":{"name":"urn:ogc:def:crs:OGC:1.3:CRS84"}},"features":[{"type":"Feature","properties":{"Name":"荣京东街与永昌中路交叉路口"},"geometry":{"type":"Point","coordinates":[116.52319883,39.80255599,1]}},{"type":"Feature","properties":{"Name":"荣华路与荣京东街交叉路口"},"geometry":{"type":"Point","coordinates":[116.51632853,39.79919908,1]}},{"type":"Feature","properties":{"Name":"荣华路与运成街交叉路口"},"geometry":{"type":"Point","coordinates":[116.52123028,39.79308978,1]}},{"type":"Feature","properties":{"Name":"荣华路与隆庆街交叉路口"},"geometry":{"type":"Point","coordinates":[116.51112407,39.8055626,1]}},{"type":"Feature","properties":{"Name":"荣京东街与同济中路交叉路口"},"geometry":{"type":"Point","coordinates":[116.527219,39.80449662,1]}},{"type":"Feature","properties":{"Name":"荣华路与兴盛街交叉路口"},"geometry":{"type":"Point","coordinates":[116.51883034,39.79614931,1]}},{"type":"Feature","properties":{"Name":"荣华路与中和街交叉路口"},"geometry":{"type":"Point","coordinates":[116.51369468,39.80238977,1]}},{"type":"Feature","properties":{"Name":"荣华路与锦绣街交叉路口"},"geometry":{"type":"Point","coordinates":[116.52371268,39.79005367,1]}},{"type":"Feature","properties":{"Name":"荣华路与万源街交叉路口"},"geometry":{"type":"Point","coordinates":[116.50854004,39.80871953,1]}},{"type":"Feature","properties":{"Name":"科创五街与经海三路交叉路口"},"geometry":{"type":"Point","coordinates":[116.54248689,39.81172128,1]}},{"type":"Feature","properties":{"Name":"科慧大道与天宝东路交叉路口"},"geometry":{"type":"Point","coordinates":[116.50971818,39.80036056,1]}},{"type":"Feature","properties":{"Name":"科创五街与经海四路交叉路口"},"geometry":{"type":"Point","coordinates":[116.54570412,39.81288644,1]}},{"type":"Feature","properties":{"Name":"科创五街与经海一路交叉路口"},"geometry":{"type":"Point","coordinates":[116.53660708,39.80897451,1]}},{"type":"Feature","properties":{"Name":"荣京西街与西环中路交叉路口"},"geometry":{"type":"Point","coordinates":[116.4992306,39.79067076,1]}},{"type":"Feature","properties":{"Name":"荣华路与文化园东路交叉路口"},"geometry":{"type":"Point","coordinates":[116.50327222,39.81528341,1]}},{"type":"Feature","properties":{"Name":"荣京西街与天宝西路交叉路口"},"geometry":{"type":"Point","coordinates":[116.50368427,39.79288916,1]}},{"type":"Feature","properties":{"Name":"宏达中路与锦绣街交叉路口"},"geometry":{"type":"Point","coordinates":[116.52668373,39.79154255,1]}},{"type":"Feature","properties":{"Name":"地泽北街与地泽路交叉路口"},"geometry":{"type":"Point","coordinates":[116.51653288,39.79075833,1]}},{"type":"Feature","properties":{"Name":"文昌大道与地盛东路交叉路口"},"geometry":{"type":"Point","coordinates":[116.51478257,39.79416136,1]}},{"type":"Feature","properties":{"Name":"宏达中路与兴盛街交叉路口"},"geometry":{"type":"Point","coordinates":[116.52168886,39.79762509,1]}},{"type":"Feature","properties":{"Name":"宏达中路与运成街交叉路口"},"geometry":{"type":"Point","coordinates":[116.52420581,39.79455886,1]}},{"type":"Feature","properties":{"Name":"荣昌东街与荣华南路交叉路口"},"geometry":{"type":"Point","coordinates":[116.5260902,39.78711749,1]}},{"type":"Feature","properties":{"Name":"永昌中路与兴盛街交叉路口"},"geometry":{"type":"Point","coordinates":[116.52565986,39.79949137,1]}},{"type":"Feature","properties":{"Name":"地盛北街与地盛中路交叉路口"},"geometry":{"type":"Point","coordinates":[116.51045723,39.79204252,1]}},{"type":"Feature","properties":{"Name":"兴盛街与东环中路交叉路口"},"geometry":{"type":"Point","coordinates":[116.53305598,39.80304707,1]}},{"type":"Feature","properties":{"Name":"地盛北街与西环中路交叉路口"},"geometry":{"type":"Point","coordinates":[116.50180835,39.78768586,1]}},{"type":"Feature","properties":{"Name":"凉水河路路口"},"geometry":{"type":"Point","coordinates":[116.49873155,39.78631055,1]}},{"type":"Feature","properties":{"Name":"运成街与永昌中路交叉路口"},"geometry":{"type":"Point","coordinates":[116.52814678,39.79642754,1]}},{"type":"Feature","properties":{"Name":"锦绣街与永昌中路交叉路口"},"geometry":{"type":"Point","coordinates":[116.53059573,39.79338817,1]}},{"type":"Feature","properties":{"Name":"兴盛街与同济中路交叉路口"},"geometry":{"type":"Point","coordinates":[116.52974086,39.80145103,1]}},{"type":"Feature","properties":{"Name":"地盛北街与地盛西路交叉路口"},"geometry":{"type":"Point","coordinates":[116.5061472,39.78986028,1]}},{"type":"Feature","properties":{"Name":"千寻街与凉水河一街交叉路口"},"geometry":{"type":"Point","coordinates":[116.48613484,39.78761241,1]}},{"type":"Feature","properties":{"Name":"天宝南街与天宝西路交叉路口"},"geometry":{"type":"Point","coordinates":[116.50109245,39.79603511,1]}},{"type":"Feature","properties":{"Name":"三海子东路与公园北环路交叉路口"},"geometry":{"type":"Point","coordinates":[116.48698699,39.7844944,1]}},{"type":"Feature","properties":{"Name":"博兴十一路与凉水河一街交叉路口"},"geometry":{"type":"Point","coordinates":[116.49902471,39.78125864,1]}},{"type":"Feature","properties":{"Name":"科创六街与经海一路交叉路口"},"geometry":{"type":"Point","coordinates":[116.53905802,39.80566451,1]}},{"type":"Feature","properties":{"Name":"科创四街与经海一路交叉路口"},"geometry":{"type":"Point","coordinates":[116.53345196,39.81198955,1]}},{"type":"Feature","properties":{"Name":"天华南街与天华东路交叉路口"},"geometry":{"type":"Point","coordinates":[116.50708506,39.80354849,1]}},{"type":"Feature","properties":{"Name":"北环东路与宏达北路交叉路口"},"geometry":{"type":"Point","coordinates":[116.50900091,39.81331574,1]}},{"type":"Feature","properties":{"Name":"文化园西路与天华东路交叉路口"},"geometry":{"type":"Point","coordinates":[116.49910154,39.81338978,1]}},{"type":"Feature","properties":{"Name":"北环西路路口"},"geometry":{"type":"Point","coordinates":[116.50370415,39.81087427,1]}},{"type":"Feature","properties":{"Name":"中和街与宏达北路交叉路口"},"geometry":{"type":"Point","coordinates":[116.51669067,39.80383617,1]}},{"type":"Feature","properties":{"Name":"荣昌东街与宏达中路交叉路口"},"geometry":{"type":"Point","coordinates":[116.52907183,39.78842737,1]}},{"type":"Feature","properties":{"Name":"中和街与同济北路交叉路口"},"geometry":{"type":"Point","coordinates":[116.52450761,39.80764472,1]}},{"type":"Feature","properties":{"Name":"科创四街与经海三路交叉路口"},"geometry":{"type":"Point","coordinates":[116.54001984,39.81500324,1]}},{"type":"Feature","properties":{"Name":"中和街与永昌北路交叉路口"},"geometry":{"type":"Point","coordinates":[116.52060413,39.80572928,1]}},{"type":"Feature","properties":{"Name":"科创四街与经海二路交叉路口(二)"},"geometry":{"type":"Point","coordinates":[116.53664508,39.81347434,1]}},{"type":"Feature","properties":{"Name":"科创四街与经海四路交叉路口"},"geometry":{"type":"Point","coordinates":[116.5428829,39.81629601,1]}},{"type":"Feature","properties":{"Name":"经海四路路口"},"geometry":{"type":"Point","coordinates":[116.54742755,39.81059942,1]}},{"type":"Feature","properties":{"Name":"中和街与东环北路交叉路口"},"geometry":{"type":"Point","coordinates":[116.52813263,39.80936557,1]}},{"type":"Feature","properties":{"Name":"科创六街与经海二路交叉路口"},"geometry":{"type":"Point","coordinates":[116.54182989,39.80697236,1]}},{"type":"Feature","properties":{"Name":"经海三路与华兰公司交叉路口"},"geometry":{"type":"Point","coordinates":[116.54408749,39.80970079,1]}},{"type":"Feature","properties":{"Name":"永昌中路路口"},"geometry":{"type":"Point","coordinates":[116.52436882,39.80109872,1]}},{"type":"Feature","properties":{"Name":"鹿圈路与凉水河路交叉路口"},"geometry":{"type":"Point","coordinates":[116.49386187,39.79180206,1]}},{"type":"Feature","properties":{"Name":"荣京东街与东环中路交叉路口"},"geometry":{"type":"Point","coordinates":[116.53087359,39.80623014,1]}},{"type":"Feature","properties":{"Name":"荣京西街与地盛中路交叉路口"},"geometry":{"type":"Point","coordinates":[116.50797748,39.79504273,1]}},{"type":"Feature","properties":{"Name":"西环北路与天宝南街路口交叉路口"},"geometry":{"type":"Point","coordinates":[116.49674667,39.79382763,1]}},{"type":"Feature","properties":{"Name":"隆庆街与宏达北路交叉路口"},"geometry":{"type":"Point","coordinates":[116.51415039,39.80701856,1]}},{"type":"Feature","properties":{"Name":"万源街与宏达北路交叉路口"},"geometry":{"type":"Point","coordinates":[116.51149318,39.81019949,1]}},{"type":"Feature","properties":{"Name":"天华北街与天华东路交叉路口"},"geometry":{"type":"Point","coordinates":[116.50452426,39.80671142,1]}},{"type":"Feature","properties":{"Name":"科创五街与经海路交叉路口"},"geometry":{"type":"Point","coordinates":[116.54922059,39.81412956,1]}},{"type":"Feature","properties":{"Name":"科创五街路口"},"geometry":{"type":"Point","coordinates":[116.5533399,39.81563214,1]}},{"type":"Feature","properties":{"Name":"科创六街与经海路交叉路口"},"geometry":{"type":"Point","coordinates":[116.55146601,39.81143795,1]}},{"type":"Feature","properties":{"Name":"经海路路口"},"geometry":{"type":"Point","coordinates":[116.54772381,39.81595672,1]}},{"type":"Feature","properties":{"Name":"荣华路与北环东路交叉路口"},"geometry":{"type":"Point","coordinates":[116.5059203,39.81187762,1]}},{"type":"Feature","properties":{"Name":"科创五街与经海二路交叉路口"},"geometry":{"type":"Point","coordinates":[116.53934477,39.8102233,1]}},{"type":"Feature","properties":{"Name":"荣京东街与宏达北路交叉路口"},"geometry":{"type":"Point","coordinates":[116.51932038,39.80063606,1]}},{"type":"Feature","properties":{"Name":"三海子东路与凉水河路交叉路口"},"geometry":{"type":"Point","coordinates":[116.4962518,39.78920187,1]}},{"type":"Feature","properties":{"Name":"三海子东路与凉水河一街交叉路口"},"geometry":{"type":"Point","coordinates":[116.49036751,39.78629013,1]}},{"type":"Feature","properties":{"Name":"地泽南街与地泽路交叉路口"},"geometry":{"type":"Point","coordinates":[116.51889749,39.78778382,1]}},{"type":"Feature","properties":{"Name":"文化园东路与经网路交叉路口"},"geometry":{"type":"Point","coordinates":[116.50804123,39.8175118,1]}},{"type":"Feature","properties":{"Name":"东马路与博大路交叉路口"},"geometry":{"type":"Point","coordinates":[116.49823835,39.82136896,1]}},{"type":"Feature","properties":{"Name":"运成街与同济中路交叉路口"},"geometry":{"type":"Point","coordinates":[116.53216785,39.79834289,1]}},{"type":"Feature","properties":{"Name":"锦绣街与同济中路交叉路口"},"geometry":{"type":"Point","coordinates":[116.53458089,39.79526054,1]}},{"type":"Feature","properties":{"Name":"景园街与宏达南路交叉路口"},"geometry":{"type":"Point","coordinates":[116.53224492,39.78456602,1]}},{"type":"Feature","properties":{"Name":"景园街与永昌南路交叉路口"},"geometry":{"type":"Point","coordinates":[116.53617694,39.78642568,1]}},{"type":"Feature","properties":{"Name":"景园街与同济南路交叉路口"},"geometry":{"type":"Point","coordinates":[116.54020315,39.78834846,1]}},{"type":"Feature","properties":{"Name":"建安街与宏达南路交叉路口"},"geometry":{"type":"Point","coordinates":[116.53566996,39.78041464,1]}},{"type":"Feature","properties":{"Name":"建安街与永昌南路交叉路口"},"geometry":{"type":"Point","coordinates":[116.53828489,39.78233364,1]}},{"type":"Feature","properties":{"Name":"建安街与同济南路交叉路口"},"geometry":{"type":"Point","coordinates":[116.5439491,39.78352059,1]}},{"type":"Feature","properties":{"Name":"康定街与宏达南路交叉路口"},"geometry":{"type":"Point","coordinates":[116.53901898,39.77610559,1]}},{"type":"Feature","properties":{"Name":"康定街与永昌南路交叉路口"},"geometry":{"type":"Point","coordinates":[116.54251025,39.77771781,1]}},{"type":"Feature","properties":{"Name":"康定街与同济南路交叉路口"},"geometry":{"type":"Point","coordinates":[116.5470869,39.77985053,1]}},{"type":"Feature","properties":{"Name":"兴业街与宏达南路交叉路口"},"geometry":{"type":"Point","coordinates":[116.54191286,39.77250274,1]}},{"type":"Feature","properties":{"Name":"兴业街与永昌南路交叉路口"},"geometry":{"type":"Point","coordinates":[116.54574475,39.77431975,1]}},{"type":"Feature","properties":{"Name":"兴业街与同济南路交叉路口"},"geometry":{"type":"Point","coordinates":[116.55076697,39.77662223,1]}},{"type":"Feature","properties":{"Name":"荣昌东街与永昌中路交叉路口"},"geometry":{"type":"Point","coordinates":[116.53311122,39.790306,1]}},{"type":"Feature","properties":{"Name":"荣昌东街与同济中路交叉路口"},"geometry":{"type":"Point","coordinates":[116.53707231,39.7922015,1]}},{"type":"Feature","properties":{"Name":"北环西路与天华东路交叉路口"},"geometry":{"type":"Point","coordinates":[116.50181917,39.80999519,1]}},{"type":"Feature","properties":{"Name":"科慧大道与天宝中路交叉路口"},"geometry":{"type":"Point","coordinates":[116.50624718,39.80087739,1]}},{"type":"Feature","properties":{"Name":"文化园西路与西环北路交叉路口"},"geometry":{"type":"Point","coordinates":[116.48610367,39.80789657,1]}},{"type":"Feature","properties":{"Name":"文化园西路与科慧大道交叉路口"},"geometry":{"type":"Point","coordinates":[116.49015859,39.80952599,1]}},{"type":"Feature","properties":{"Name":"文化园西路与天华西路交叉路口"},"geometry":{"type":"Point","coordinates":[116.49445337,39.81122745,1]}},{"type":"Feature","properties":{"Name":"北环西路与西环北路交叉路口"},"geometry":{"type":"Point","coordinates":[116.48713366,39.80625553,1]}},{"type":"Feature","properties":{"Name":"北环西路与科慧大道交叉路口"},"geometry":{"type":"Point","coordinates":[116.49209448,39.80705319,1]}},{"type":"Feature","properties":{"Name":"北环西路与天华西路交叉路口"},"geometry":{"type":"Point","coordinates":[116.49721141,39.80790368,1]}},{"type":"Feature","properties":{"Name":"贵园中街与西环北路交叉路口"},"geometry":{"type":"Point","coordinates":[116.48910561,39.8029838,1]}},{"type":"Feature","properties":{"Name":"天宝北街与西环北路交叉路口"},"geometry":{"type":"Point","coordinates":[116.49104448,39.79990508,1]}},{"type":"Feature","properties":{"Name":"亦兴北路与贵园路交叉路口"},"geometry":{"type":"Point","coordinates":[116.48364182,39.80604257,1]}},{"type":"Feature","properties":{"Name":"贵园北街与贵园北路交叉路口"},"geometry":{"type":"Point","coordinates":[116.48498794,39.80386254,1]}},{"type":"Feature","properties":{"Name":"贵园中街与贵园北路交叉路口"},"geometry":{"type":"Point","coordinates":[116.48622265,39.80184155,1]}},{"type":"Feature","properties":{"Name":"贵园南街与贵园北路交叉路口"},"geometry":{"type":"Point","coordinates":[116.48728254,39.80008052,1]}},{"type":"Feature","properties":{"Name":"天宝北街与贵园南路交叉路口"},"geometry":{"type":"Point","coordinates":[116.48807253,39.79880476,1]}},{"type":"Feature","properties":{"Name":"运成街与东环中路交叉路口"},"geometry":{"type":"Point","coordinates":[116.53533923,39.79987749,1]}},{"type":"Feature","properties":{"Name":"锦绣街与同济中路东边路口"},"geometry":{"type":"Point","coordinates":[116.53765698,39.79671657,1]}},{"type":"Feature","properties":{"Name":"景园街与宏达南路西边路口"},"geometry":{"type":"Point","coordinates":[116.52851868,39.78282345,1]}},{"type":"Feature","properties":{"Name":"景园街与同济南路东边路口"},"geometry":{"type":"Point","coordinates":[116.54383417,39.79003255,1]}},{"type":"Feature","properties":{"Name":"宏达西路与建安街交叉路口"},"geometry":{"type":"Point","coordinates":[116.53339572,39.77873501,1]}},{"type":"Feature","properties":{"Name":"建安街与东环南路交叉路口"},"geometry":{"type":"Point","coordinates":[116.54909178,39.78591753,1]}},{"type":"Feature","properties":{"Name":"康定街与宏达南路西边路口"},"geometry":{"type":"Point","coordinates":[116.53652406,39.77489581,1]}},{"type":"Feature","properties":{"Name":"康定街与东环南路交叉路口"},"geometry":{"type":"Point","coordinates":[116.55285875,39.78253846,1]}},{"type":"Feature","properties":{"Name":"兴业街与宏达南路西边路口"},"geometry":{"type":"Point","coordinates":[116.54100599,39.77115058,1]}},{"type":"Feature","properties":{"Name":"兴业街与永昌南路南边路口"},"geometry":{"type":"Point","coordinates":[116.54925897,39.77055824,1]}},{"type":"Feature","properties":{"Name":"兴业街与同济南路南边路口"},"geometry":{"type":"Point","coordinates":[116.55416345,39.7736656,1]}},{"type":"Feature","properties":{"Name":"兴业街与东环南路交叉路口"},"geometry":{"type":"Point","coordinates":[116.55577231,39.77894783,1]}},{"type":"Feature","properties":{"Name":"荣昌东街与东环中路交叉路口"},"geometry":{"type":"Point","coordinates":[116.54021492,39.79368125,1]}},{"type":"Feature","properties":{"Name":"天华北街与天华西路交叉路口"},"geometry":{"type":"Point","coordinates":[116.50005534,39.8044509,1]}},{"type":"Feature","properties":{"Name":"文化园西路与西环北路北边路口"},"geometry":{"type":"Point","coordinates":[116.48328675,39.81054651,1]}},{"type":"Feature","properties":{"Name":"北环西路与科慧大道南边路口"},"geometry":{"type":"Point","coordinates":[116.49407485,39.8045984,1]}},{"type":"Feature","properties":{"Name":"科慧大道与天宝中街交叉路口"},"geometry":{"type":"Point","coordinates":[116.49926863,39.80188287,1]}},{"type":"Feature","properties":{"Name":"天宝北街与科慧大道交叉路口"},"geometry":{"type":"Point","coordinates":[116.49588561,39.80238353,1]}},{"type":"Feature","properties":{"Name":"天宝中街与天宝西路交叉路口"},"geometry":{"type":"Point","coordinates":[116.49851947,39.79921003,1]}},{"type":"Feature","properties":{"Name":"天宝南街与天宝西路东边路口"},"geometry":{"type":"Point","coordinates":[116.50537132,39.79824745,1]}},{"type":"Feature","properties":{"Name":"亦兴北路与贵园路西边路口"},"geometry":{"type":"Point","coordinates":[116.48050277,39.80516946,1]}},{"type":"Feature","properties":{"Name":"贵园北街与贵园北路西边路口"},"geometry":{"type":"Point","coordinates":[116.48199181,39.80275539,1]}},{"type":"Feature","properties":{"Name":"贵园中街与贵园北路西边路口"},"geometry":{"type":"Point","coordinates":[116.48237457,39.80053716,1]}},{"type":"Feature","properties":{"Name":"贵园南街与贵园北路西边路口"},"geometry":{"type":"Point","coordinates":[116.48471554,39.79915543,1]}},{"type":"Feature","properties":{"Name":"天宝北街与贵园南路西边路口"},"geometry":{"type":"Point","coordinates":[116.48650755,39.79816557,1]}},{"type":"Feature","properties":{"Name":"贵园北街与贵园北路东边路口"},"geometry":{"type":"Point","coordinates":[116.48796032,39.8049485,1]}},{"type":"Feature","properties":{"Name":"贵园南街与贵园北路东边路口"},"geometry":{"type":"Point","coordinates":[116.49011171,39.80107824,1]}},{"type":"Feature","properties":{"Name":"西环北路与天宝中街交叉路口"},"geometry":{"type":"Point","coordinates":[116.49386925,39.79680427,1]}},{"type":"Feature","properties":{"Name":"西环北路与天宝中街西边路口"},"geometry":{"type":"Point","coordinates":[116.48954755,39.79715778,1]}},{"type":"Feature","properties":{"Name":"荣京西街与地盛东路交叉路口"},"geometry":{"type":"Point","coordinates":[116.51409646,39.79809057,1]}},{"type":"Feature","properties":{"Name":"博大公园南边路口"},"geometry":{"type":"Point","coordinates":[116.51145106,39.80127738,1]}},{"type":"Feature","properties":{"Name":"科创十街与通惠干渠路交叉路口"},"geometry":{"type":"Point","coordinates":[116.578803,39.80311121,1]}},{"type":"Feature","properties":{"Name":"科创十一街与经海三路交叉路口"},"geometry":{"type":"Point","coordinates":[116.56042735,39.79023497,1]}},{"type":"Feature","properties":{"Name":"科创十一街与经海四路交叉路口"},"geometry":{"type":"Point","coordinates":[116.56353307,39.79167415,1]}},{"type":"Feature","properties":{"Name":"科创十一街与经海五路交叉路口"},"geometry":{"type":"Point","coordinates":[116.57088391,39.79512833,1]}},{"type":"Feature","properties":{"Name":"科创十一街与经海六路交叉路口"},"geometry":{"type":"Point","coordinates":[116.5744277,39.79677537,1]}},{"type":"Feature","properties":{"Name":"科创十二街与经海路交叉路口"},"geometry":{"type":"Point","coordinates":[116.56985489,39.79031949,1]}},{"type":"Feature","properties":{"Name":"科创十四街与经海三路交叉路口"},"geometry":{"type":"Point","coordinates":[116.56720274,39.78194169,1]}},{"type":"Feature","properties":{"Name":"科创十四街与经海四路交叉路口"},"geometry":{"type":"Point","coordinates":[116.57082377,39.78364975,1]}},{"type":"Feature","properties":{"Name":"凉水河二街与博兴三路交叉路口"},"geometry":{"type":"Point","coordinates":[116.53010973,39.76691218,1]}},{"type":"Feature","properties":{"Name":"新凤河路与博兴三路交叉路口"},"geometry":{"type":"Point","coordinates":[116.52631634,39.74885552,1]}},{"type":"Feature","properties":{"Name":"凉水河路与博兴三路交叉路口"},"geometry":{"type":"Point","coordinates":[116.5304676,39.77148834,1]}},{"type":"Feature","properties":{"Name":"兴业街与东环南路南边路口"},"geometry":{"type":"Point","coordinates":[116.55921446,39.7749931,1]}},{"type":"Feature","properties":{"Name":"科创十街与通惠干渠西南边路口"},"geometry":{"type":"Point","coordinates":[116.57671394,39.80212422,1]}},{"type":"Feature","properties":{"Name":"科创十一街与通惠干渠路交叉路口"},"geometry":{"type":"Point","coordinates":[116.57936092,39.79918218,1]}},{"type":"Feature","properties":{"Name":"科创十街与通惠干渠路北边路口"},"geometry":{"type":"Point","coordinates":[116.57856203,39.80508796,1]}},{"type":"Feature","properties":{"Name":"科创十一街与经海一路交叉路口"},"geometry":{"type":"Point","coordinates":[116.55559661,39.78811041,1]}},{"type":"Feature","properties":{"Name":"科创十街与经海三路交叉路口"},"geometry":{"type":"Point","coordinates":[116.55782549,39.79332469,1]}},{"type":"Feature","properties":{"Name":"科创十二街与经海三路交叉路口"},"geometry":{"type":"Point","coordinates":[116.56300022,39.78715331,1]}},{"type":"Feature","properties":{"Name":"科创十街与经海四路交叉路口"},"geometry":{"type":"Point","coordinates":[116.56081128,39.79470581,1]}},{"type":"Feature","properties":{"Name":"科创十一街与经海路交叉路口"},"geometry":{"type":"Point","coordinates":[116.56706402,39.79336214,1]}},{"type":"Feature","properties":{"Name":"科创十二街与经海四路交叉路口"},"geometry":{"type":"Point","coordinates":[116.56627378,39.7886572,1]}},{"type":"Feature","properties":{"Name":"科创十街与经海五路交叉路口"},"geometry":{"type":"Point","coordinates":[116.56810817,39.79809627,1]}},{"type":"Feature","properties":{"Name":"科创十二街与经海五路交叉路口"},"geometry":{"type":"Point","coordinates":[116.57358881,39.79207755,1]}},{"type":"Feature","properties":{"Name":"科创十二街与经海六路交叉路口"},"geometry":{"type":"Point","coordinates":[116.57709568,39.79380444,1]}},{"type":"Feature","properties":{"Name":"科创十街与经海六路交叉路口"},"geometry":{"type":"Point","coordinates":[116.57173603,39.79977027,1]}},{"type":"Feature","properties":{"Name":"科创十三街与经海路交叉路口"},"geometry":{"type":"Point","coordinates":[116.57217488,39.78785468,1]}},{"type":"Feature","properties":{"Name":"兴海路与博兴三路交叉路口"},"geometry":{"type":"Point","coordinates":[116.52523842,39.75367057,1]}},{"type":"Feature","properties":{"Name":"新凤河路与博兴三路西边路口"},"geometry":{"type":"Point","coordinates":[116.52147473,39.74837757,1]}},{"type":"Feature","properties":{"Name":"新凤河路与博兴二路交叉路口"},"geometry":{"type":"Point","coordinates":[116.52856148,39.7493552,1]}},{"type":"Feature","properties":{"Name":"新凤河路与博兴三路东南边路口"},"geometry":{"type":"Point","coordinates":[116.52775069,39.74663726,1]}},{"type":"Feature","properties":{"Name":"凉水河路与博兴五路交叉路口"},"geometry":{"type":"Point","coordinates":[116.52763485,39.77489956,1]}},{"type":"Feature","properties":{"Name":"凉水河一街与博兴三路东北边路口"},"geometry":{"type":"Point","coordinates":[116.53404766,39.7737399,1]}},{"type":"Feature","properties":{"Name":"凉水河一街与博兴三路交叉路口"},"geometry":{"type":"Point","coordinates":[116.52973088,39.7692844,1]}},{"type":"Feature","properties":{"Name":"科创十三街与经海三路交叉路口"},"geometry":{"type":"Point","coordinates":[116.56506614,39.78460617,1]}},{"type":"Feature","properties":{"Name":"科创十七街与经海三路交叉路口"},"geometry":{"type":"Point","coordinates":[116.56985483,39.77860181,1]}},{"type":"Feature","properties":{"Name":"科创十四街与经海一路交叉路口"},"geometry":{"type":"Point","coordinates":[116.56319792,39.7800124,1]}},{"type":"Feature","properties":{"Name":"科创十四街与经海路交叉路口"},"geometry":{"type":"Point","coordinates":[116.5744656,39.78537031,1]}},{"type":"Feature","properties":{"Name":"科创十三街与经海四路交叉路口"},"geometry":{"type":"Point","coordinates":[116.56853682,39.78619032,1]}},{"type":"Feature","properties":{"Name":"科创十五街与经海四路交叉路口"},"geometry":{"type":"Point","coordinates":[116.57306763,39.78108347,1]}},{"type":"Feature","properties":{"Name":"凉水河二街与博兴一路交叉路口"},"geometry":{"type":"Point","coordinates":[116.53751593,39.76437671,1]}},{"type":"Feature","properties":{"Name":"凉水河二街与博兴五路交叉路口"},"geometry":{"type":"Point","coordinates":[116.52457481,39.76868982,1]}},{"type":"Feature","properties":{"Name":"泰河路与博兴三路交叉路口"},"geometry":{"type":"Point","coordinates":[116.52905772,39.76402032,1]}},{"type":"Feature","properties":{"Name":"北环东路与经网路交叉路口"},"geometry":{"type":"Point","coordinates":[116.51079102,39.81413935,1]}},{"type":"Feature","properties":{"Name":"北环东路与永昌北路交叉路口"},"geometry":{"type":"Point","coordinates":[116.51295902,39.81515445,1]}},{"type":"Feature","properties":{"Name":"北环东路与东环北路交叉路口"},"geometry":{"type":"Point","coordinates":[116.51881396,39.81775787,1]}},{"type":"Feature","properties":{"Name":"万源街与永昌北路交叉路口"},"geometry":{"type":"Point","coordinates":[116.51539121,39.81213138,1]}},{"type":"Feature","properties":{"Name":"万源街与同济北路交叉路口"},"geometry":{"type":"Point","coordinates":[116.51958104,39.81419046,1]}},{"type":"Feature","properties":{"Name":"万源街与东环北路交叉路口"},"geometry":{"type":"Point","coordinates":[116.52187061,39.81529884,1]}},{"type":"Feature","properties":{"Name":"隆庆街与永昌北路交叉路口"},"geometry":{"type":"Point","coordinates":[116.51799735,39.80894392,1]}},{"type":"Feature","properties":{"Name":"隆庆街与同济北路交叉路口"},"geometry":{"type":"Point","coordinates":[116.5218267,39.81074569,1]}},{"type":"Feature","properties":{"Name":"隆庆街与东环北路交叉路口"},"geometry":{"type":"Point","coordinates":[116.52521943,39.81236854,1]}},{"type":"Feature","properties":{"Name":"地盛中路与文昌大道交叉路口"},"geometry":{"type":"Point","coordinates":[116.51374471,39.79132268,1]}},{"type":"Feature","properties":{"Name":"文昌大道与地泽南街交叉路口"},"geometry":{"type":"Point","coordinates":[116.51248646,39.78773154,1]}},{"type":"Feature","properties":{"Name":"地泽西街与地泽南街交叉路口"},"geometry":{"type":"Point","coordinates":[116.51575642,39.78704212,1]}},{"type":"Feature","properties":{"Name":"地泽东街与地泽路交叉路口"},"geometry":{"type":"Point","coordinates":[116.52095329,39.78473284,1]}},{"type":"Feature","properties":{"Name":"科创六街与经海三路交叉路口"},"geometry":{"type":"Point","coordinates":[116.54506891,39.80849119,1]}},{"type":"Feature","properties":{"Name":"科创六街与经海四路交叉路口"},"geometry":{"type":"Point","coordinates":[116.54798072,39.80983336,1]}},{"type":"Feature","properties":{"Name":"科创七街与经海一路交叉路口"},"geometry":{"type":"Point","coordinates":[116.54112582,39.80260327,1]}},{"type":"Feature","properties":{"Name":"科创七街与经海二路交叉路口"},"geometry":{"type":"Point","coordinates":[116.54407381,39.80396816,1]}},{"type":"Feature","properties":{"Name":"科创七街与经海三路交叉路口"},"geometry":{"type":"Point","coordinates":[116.54742579,39.80554023,1]}},{"type":"Feature","properties":{"Name":"科创七街与经海四路交叉路口"},"geometry":{"type":"Point","coordinates":[116.55024263,39.80683745,1]}},{"type":"Feature","properties":{"Name":"科创七街与经海路交叉路口"},"geometry":{"type":"Point","coordinates":[116.55389488,39.80850598,1]}},{"type":"Feature","properties":{"Name":"科创八街与经海一路交叉路口"},"geometry":{"type":"Point","coordinates":[116.54349186,39.79948516,1]}},{"type":"Feature","properties":{"Name":"科创八街与经海二路交叉路口"},"geometry":{"type":"Point","coordinates":[116.5467137,39.80099539,1]}},{"type":"Feature","properties":{"Name":"科创八街与经海三路交叉路口"},"geometry":{"type":"Point","coordinates":[116.54989908,39.80246381,1]}},{"type":"Feature","properties":{"Name":"科创八街与经海四路交叉路口"},"geometry":{"type":"Point","coordinates":[116.55277569,39.80380006,1]}},{"type":"Feature","properties":{"Name":"科创八街与经海路交叉路口"},"geometry":{"type":"Point","coordinates":[116.55641646,39.80546024,1]}},{"type":"Feature","properties":{"Name":"科创九街与经海三路交叉路口"},"geometry":{"type":"Point","coordinates":[116.55512164,39.79633541,1]}},{"type":"Feature","properties":{"Name":"科创九街与经海四路交叉路口"},"geometry":{"type":"Point","coordinates":[116.55806571,39.79770238,1]}},{"type":"Feature","properties":{"Name":"科创九街与经海路交叉路口"},"geometry":{"type":"Point","coordinates":[116.56175549,39.79940077,1]}},{"type":"Feature","properties":{"Name":"科创九街与经海五路交叉路口"},"geometry":{"type":"Point","coordinates":[116.56539018,39.80108592,1]}},{"type":"Feature","properties":{"Name":"科创九街与经海六路交叉路口"},"geometry":{"type":"Point","coordinates":[116.56894404,39.80274638,1]}},{"type":"Feature","properties":{"Name":"科创九街与经海七路交叉路口"},"geometry":{"type":"Point","coordinates":[116.57217285,39.80422444,1]}},{"type":"Feature","properties":{"Name":"科创十街与经海一路交叉路口"},"geometry":{"type":"Point","coordinates":[116.5523599,39.79080723,1]}},{"type":"Feature","properties":{"Name":"科创十街与经海路交叉路口"},"geometry":{"type":"Point","coordinates":[116.56438121,39.79633907,1]}},{"type":"Feature","properties":{"Name":"科创十街与经海七路交叉路口"},"geometry":{"type":"Point","coordinates":[116.5748749,39.80125318,1]}},{"type":"Feature","properties":{"Name":"科创十二街与经海一路交叉路口"},"geometry":{"type":"Point","coordinates":[116.55859435,39.78520595,1]}},{"type":"Feature","properties":{"Name":"科创十二街与通惠干渠路交叉路口"},"geometry":{"type":"Point","coordinates":[116.57976091,39.79510708,1]}},{"type":"Feature","properties":{"Name":"科创十二街与经海九路交叉路口"},"geometry":{"type":"Point","coordinates":[116.58581994,39.79892442,1]}},{"type":"Feature","properties":{"Name":"科创十三街与经海一路交叉路口"},"geometry":{"type":"Point","coordinates":[116.56095934,39.78266797,1]}},{"type":"Feature","properties":{"Name":"科创十三街与经海五路交叉路口"},"geometry":{"type":"Point","coordinates":[116.57584189,39.78959025,1]}},{"type":"Feature","properties":{"Name":"科创十三街与通惠干渠路交叉路口"},"geometry":{"type":"Point","coordinates":[116.58007477,39.79164918,1]}},{"type":"Feature","properties":{"Name":"科谷一街与经惠西路交叉路口"},"geometry":{"type":"Point","coordinates":[116.58348201,39.79343776,1]}},{"type":"Feature","properties":{"Name":"科谷一街与经惠东路交叉路口"},"geometry":{"type":"Point","coordinates":[116.58552506,39.79454929,1]}},{"type":"Feature","properties":{"Name":"科创十四街与经海五路交叉路口"},"geometry":{"type":"Point","coordinates":[116.57811191,39.78705131,1]}},{"type":"Feature","properties":{"Name":"科创十四街与通惠干渠路交叉路口"},"geometry":{"type":"Point","coordinates":[116.58047878,39.78816622,1]}},{"type":"Feature","properties":{"Name":"科谷二街与经惠西路交叉路口"},"geometry":{"type":"Point","coordinates":[116.58581091,39.7908775,1]}},{"type":"Feature","properties":{"Name":"科谷二街与经惠东路交叉路口"},"geometry":{"type":"Point","coordinates":[116.58778719,39.79208541,1]}},{"type":"Feature","properties":{"Name":"科谷二街与经海九路交叉路口"},"geometry":{"type":"Point","coordinates":[116.59066005,39.79370313,1]}},{"type":"Feature","properties":{"Name":"科创十七街与经海一路交叉路口"},"geometry":{"type":"Point","coordinates":[116.56499588,39.77761237,1]}},{"type":"Feature","properties":{"Name":"科创十五街与经海路交叉路口"},"geometry":{"type":"Point","coordinates":[116.57674963,39.78277148,1]}},{"type":"Feature","properties":{"Name":"科创十五街与通惠干渠路交叉路口"},"geometry":{"type":"Point","coordinates":[116.58084777,39.784682,1]}},{"type":"Feature","properties":{"Name":"科谷三街与经惠西路交叉路口"},"geometry":{"type":"Point","coordinates":[116.58856532,39.78814526,1]}},{"type":"Feature","properties":{"Name":"科谷三街与经惠东路交叉路口"},"geometry":{"type":"Point","coordinates":[116.59042422,39.78923319,1]}},{"type":"Feature","properties":{"Name":"科创十七街与经海四路交叉路口"},"geometry":{"type":"Point","coordinates":[116.57330081,39.77872745,1]}},{"type":"Feature","properties":{"Name":"科创十七街与经海路交叉路口"},"geometry":{"type":"Point","coordinates":[116.57837171,39.77887634,1]}},{"type":"Feature","properties":{"Name":"科创十七街与通惠干渠路交叉路口"},"geometry":{"type":"Point","coordinates":[116.58151081,39.77906497,1]}},{"type":"Feature","properties":{"Name":"科创十六街与通惠干渠路交叉路口"},"geometry":{"type":"Point","coordinates":[116.58115269,39.78190003,1]}},{"type":"Feature","properties":{"Name":"科谷四街与经惠西路交叉路口"},"geometry":{"type":"Point","coordinates":[116.5915741,39.78594779,1]}},{"type":"Feature","properties":{"Name":"科谷四街与经惠东路交叉路口"},"geometry":{"type":"Point","coordinates":[116.59288132,39.78658386,1]}},{"type":"Feature","properties":{"Name":"科谷四街与经海九路交叉路口"},"geometry":{"type":"Point","coordinates":[116.59593947,39.78809328,1]}},{"type":"Feature","properties":{"Name":"科创十七街与经惠西路交叉路口"},"geometry":{"type":"Point","coordinates":[116.59298508,39.78182667,1]}},{"type":"Feature","properties":{"Name":"凉水河路与博兴路交叉路口"},"geometry":{"type":"Point","coordinates":[116.52248572,39.77772285,1]}},{"type":"Feature","properties":{"Name":"凉水河一街与博兴五路交叉路口"},"geometry":{"type":"Point","coordinates":[116.52583678,39.77122136,1]}},{"type":"Feature","properties":{"Name":"凉水河一街与博兴路交叉路口"},"geometry":{"type":"Point","coordinates":[116.5205995,39.77327801,1]}},{"type":"Feature","properties":{"Name":"凉水河二街与博兴七路交叉路口"},"geometry":{"type":"Point","coordinates":[116.51125238,39.77240337,1]}},{"type":"Feature","properties":{"Name":"凉水河二街与博兴六路交叉路口"},"geometry":{"type":"Point","coordinates":[116.5153886,39.77125732,1]}},{"type":"Feature","properties":{"Name":"凉水河二街与博兴路交叉路口"},"geometry":{"type":"Point","coordinates":[116.51934292,39.77018845,1]}},{"type":"Feature","properties":{"Name":"黄亦路与三海子东路交叉路口"},"geometry":{"type":"Point","coordinates":[116.48780775,39.7716483,1]}},{"type":"Feature","properties":{"Name":"黄亦路与四海路交叉路口"},"geometry":{"type":"Point","coordinates":[116.49330685,39.77075786,1]}},{"type":"Feature","properties":{"Name":"黄亦路与四合路交叉路口"},"geometry":{"type":"Point","coordinates":[116.49973552,39.77052283,1]}},{"type":"Feature","properties":{"Name":"黄亦路与博兴九路交叉路口"},"geometry":{"type":"Point","coordinates":[116.50328646,39.77039086,1]}},{"type":"Feature","properties":{"Name":"泰河路与博兴七路交叉路口"},"geometry":{"type":"Point","coordinates":[116.50996447,39.76912114,1]}},{"type":"Feature","properties":{"Name":"泰河路与博兴六路交叉路口"},"geometry":{"type":"Point","coordinates":[116.5141256,39.76814138,1]}},{"type":"Feature","properties":{"Name":"泰河路与博兴路交叉路口"},"geometry":{"type":"Point","coordinates":[116.51807263,39.76716288,1]}},{"type":"Feature","properties":{"Name":"泰河路与博兴五路交叉路口"},"geometry":{"type":"Point","coordinates":[116.52314472,39.76579299,1]}},{"type":"Feature","properties":{"Name":"泰河路与博兴一路交叉路口"},"geometry":{"type":"Point","coordinates":[116.53631877,39.76192477,1]}},{"type":"Feature","properties":{"Name":"泰河路与新凤河路交叉路口"},"geometry":{"type":"Point","coordinates":[116.54138756,39.76041074,1]}},{"type":"Feature","properties":{"Name":"宝善街与四海路交叉路口"},"geometry":{"type":"Point","coordinates":[116.49312696,39.76790878,1]}},{"type":"Feature","properties":{"Name":"宝善街与四合路交叉路口"},"geometry":{"type":"Point","coordinates":[116.4988096,39.76773254,1]}},{"type":"Feature","properties":{"Name":"泰河一街与博兴七路交叉路口"},"geometry":{"type":"Point","coordinates":[116.50891828,39.76647429,1]}},{"type":"Feature","properties":{"Name":"泰河一街与博兴六路交叉路口"},"geometry":{"type":"Point","coordinates":[116.51292429,39.76547124,1]}},{"type":"Feature","properties":{"Name":"泰河一街与博兴路交叉路口"},"geometry":{"type":"Point","coordinates":[116.51680229,39.76445092,1]}},{"type":"Feature","properties":{"Name":"泰河一街与博兴三路交叉路口"},"geometry":{"type":"Point","coordinates":[116.52781179,39.7615203,1]}},{"type":"Feature","properties":{"Name":"泰河一街与博林路交叉路口"},"geometry":{"type":"Point","coordinates":[116.53252949,39.7602229,1]}},{"type":"Feature","properties":{"Name":"泰河一街与博兴一路交叉路口"},"geometry":{"type":"Point","coordinates":[116.53521448,39.75949981,1]}},{"type":"Feature","properties":{"Name":"泰河一街与新凤河路交叉路口"},"geometry":{"type":"Point","coordinates":[116.53973575,39.75821761,1]}},{"type":"Feature","properties":{"Name":"姜场街与三海子东路交叉路口"},"geometry":{"type":"Point","coordinates":[116.48817585,39.76507691,1]}},{"type":"Feature","properties":{"Name":"姜场街与四海路交叉路口"},"geometry":{"type":"Point","coordinates":[116.49292305,39.76494172,1]}},{"type":"Feature","properties":{"Name":"姜场街与四合路交叉路口"},"geometry":{"type":"Point","coordinates":[116.49781741,39.76477321,1]}},{"type":"Feature","properties":{"Name":"泰河二街与博兴七路交叉路口"},"geometry":{"type":"Point","coordinates":[116.50779246,39.76362505,1]}},{"type":"Feature","properties":{"Name":"泰河二街与博兴六路交叉路口"},"geometry":{"type":"Point","coordinates":[116.51162366,39.76268528,1]}},{"type":"Feature","properties":{"Name":"泰河二街与博兴路交叉路口"},"geometry":{"type":"Point","coordinates":[116.51550232,39.76177625,1]}},{"type":"Feature","properties":{"Name":"泰河二街与博林路交叉路口"},"geometry":{"type":"Point","coordinates":[116.53194172,39.75765084,1]}},{"type":"Feature","properties":{"Name":"泰河二街与博兴一路交叉路口"},"geometry":{"type":"Point","coordinates":[116.53407189,39.75711305,1]}},{"type":"Feature","properties":{"Name":"泰河二街与新凤河路交叉路口"},"geometry":{"type":"Point","coordinates":[116.53788891,39.75601386,1]}},{"type":"Feature","properties":{"Name":"千顷堂街与三海子东路交叉路口"},"geometry":{"type":"Point","coordinates":[116.4882397,39.76172308,1]}},{"type":"Feature","properties":{"Name":"千顷堂街与四海路交叉路口"},"geometry":{"type":"Point","coordinates":[116.49274493,39.76181686,1]}},{"type":"Feature","properties":{"Name":"千顷堂街与四合路交叉路口"},"geometry":{"type":"Point","coordinates":[116.49680788,39.76170921,1]}},{"type":"Feature","properties":{"Name":"泰河三街与博兴七路交叉路口"},"geometry":{"type":"Point","coordinates":[116.50660662,39.76069808,1]}},{"type":"Feature","properties":{"Name":"泰河三街与博兴三路交叉路口"},"geometry":{"type":"Point","coordinates":[116.52534951,39.75666771,1]}},{"type":"Feature","properties":{"Name":"泰河三街与博兴路交叉路口"},"geometry":{"type":"Point","coordinates":[116.51408355,39.75909931,1]}},{"type":"Feature","properties":{"Name":"泰河二街与博兴路东南边路口"},"geometry":{"type":"Point","coordinates":[116.51619427,39.76158682,1]}},{"type":"Feature","properties":{"Name":"科创街与经海三路交叉路口"},"geometry":{"type":"Point","coordinates":[116.55242175,39.79932613,1]}},{"type":"Feature","properties":{"Name":"科创街与经海四路交叉路口"},"geometry":{"type":"Point","coordinates":[116.55534749,39.80070508,1]}},{"type":"Feature","properties":{"Name":"兴海路与博兴路交叉路口"},"geometry":{"type":"Point","coordinates":[116.51287946,39.75638341,1]}},{"type":"Feature","properties":{"Name":"兴海一街与博兴路交叉路口"},"geometry":{"type":"Point","coordinates":[116.51131531,39.75342809,1]}},{"type":"Feature","properties":{"Name":"兴海一街与博兴六路交叉路口"},"geometry":{"type":"Point","coordinates":[116.50839045,39.75384715,1]}},{"type":"Feature","properties":{"Name":"兴海一街与博兴路东南边路口"},"geometry":{"type":"Point","coordinates":[116.51204748,39.75322724,1]}},{"type":"Feature","properties":{"Name":"兴海二街与博兴路交叉路口"},"geometry":{"type":"Point","coordinates":[116.50987629,39.75053619,1]}},{"type":"Feature","properties":{"Name":"科创街与经海一路交叉路口"},"geometry":{"type":"Point","coordinates":[116.54656979,39.79666836,1]}},{"type":"Feature","properties":{"Name":"科创街与经海路交叉路口"},"geometry":{"type":"Point","coordinates":[116.5589573,39.8023736,1]}},{"type":"Feature","properties":{"Name":"泰河三街与博兴六路交叉路口"},"geometry":{"type":"Point","coordinates":[116.51032629,39.75991298,1]}},{"type":"Feature","properties":{"Name":"泰河三街与博兴路东南边路口"},"geometry":{"type":"Point","coordinates":[116.51470061,39.75890933,1]}},{"type":"Feature","properties":{"Name":"宏达西路与建安街西南边路口"},"geometry":{"type":"Point","coordinates":[116.53209292,39.77780204,1]}},{"type":"Feature","properties":{"Name":"宏达西路与建安街西北边路口"},"geometry":{"type":"Point","coordinates":[116.53139871,39.78122811,1]}},{"type":"Feature","properties":{"Name":"泰河三街与博兴二路交叉路口"},"geometry":{"type":"Point","coordinates":[116.52851276,39.75590629,1]}},{"type":"Feature","properties":{"Name":"泰河三街与博林路交叉路口"},"geometry":{"type":"Point","coordinates":[116.5314067,39.75524085,1]}},{"type":"Feature","properties":{"Name":"泰河三街与博兴一路交叉路口"},"geometry":{"type":"Point","coordinates":[116.53298052,39.75487392,1]}},{"type":"Feature","properties":{"Name":"泰河三街与新凤河路交叉路口"},"geometry":{"type":"Point","coordinates":[116.53625063,39.75406999,1]}},{"type":"Feature","properties":{"Name":"兴海路与三海子东路交叉路口"},"geometry":{"type":"Point","coordinates":[116.4885171,39.75878849,1]}},{"type":"Feature","properties":{"Name":"兴海路与四海路交叉路口"},"geometry":{"type":"Point","coordinates":[116.49252105,39.75863977,1]}},{"type":"Feature","properties":{"Name":"兴海路与四合路交叉路口"},"geometry":{"type":"Point","coordinates":[116.49572675,39.75854309,1]}},{"type":"Feature","properties":{"Name":"兴海路与博兴七路交叉路口"},"geometry":{"type":"Point","coordinates":[116.50587947,39.75762315,1]}},{"type":"Feature","properties":{"Name":"兴海路与博兴六路交叉路口"},"geometry":{"type":"Point","coordinates":[116.50931532,39.75697814,1]}},{"type":"Feature","properties":{"Name":"兴海路与博兴二路交叉路口"},"geometry":{"type":"Point","coordinates":[116.52847045,39.75323838,1]}},{"type":"Feature","properties":{"Name":"兴海路与新凤河路交叉路口"},"geometry":{"type":"Point","coordinates":[116.53407661,39.75204395,1]}},{"type":"Feature","properties":{"Name":"兴海一街与四合路交叉路口"},"geometry":{"type":"Point","coordinates":[116.49500389,39.75497598,1]}},{"type":"Feature","properties":{"Name":"兴海一街与博兴七路交叉路口"},"geometry":{"type":"Point","coordinates":[116.50537525,39.75426286,1]}},{"type":"Feature","properties":{"Name":"兴亦路与四合路交叉路口"},"geometry":{"type":"Point","coordinates":[116.49564785,39.75105885,1]}},{"type":"Feature","properties":{"Name":"兴海二街与博兴七路交叉路口"},"geometry":{"type":"Point","coordinates":[116.5048702,39.75086671,1]}},{"type":"Feature","properties":{"Name":"新凤河路与博兴路交叉路口"},"geometry":{"type":"Point","coordinates":[116.50803028,39.74636106,1]}},{"type":"Feature","properties":{"Name":"六环路与瑞合路交叉路口"},"geometry":{"type":"Point","coordinates":[116.50805625,39.74351915,1]}},{"type":"Feature","properties":{"Name":"融兴北三街与瑞合西二路交叉路口"},"geometry":{"type":"Point","coordinates":[116.50084453,39.73522871,1]}},{"type":"Feature","properties":{"Name":"融兴北三街与瑞合西一路交叉路口"},"geometry":{"type":"Point","coordinates":[116.5054259,39.73725899,1]}},{"type":"Feature","properties":{"Name":"融兴北三街与瑞合路交叉路口"},"geometry":{"type":"Point","coordinates":[116.50912032,39.73902622,1]}},{"type":"Feature","properties":{"Name":"融兴北三街与瑞合东一路交叉路口"},"geometry":{"type":"Point","coordinates":[116.5139279,39.74038494,1]}},{"type":"Feature","properties":{"Name":"融兴北三街与瑞合东二路交叉路口"},"geometry":{"type":"Point","coordinates":[116.51858001,39.74151565,1]}},{"type":"Feature","properties":{"Name":"融兴北三街与亦柏路交叉路口"},"geometry":{"type":"Point","coordinates":[116.52727261,39.74376044,1]}},{"type":"Feature","properties":{"Name":"融兴北二街与三海子东路交叉路口"},"geometry":{"type":"Point","coordinates":[116.49953733,39.73123555,1]}},{"type":"Feature","properties":{"Name":"融兴北二街与瑞合西二路交叉路口"},"geometry":{"type":"Point","coordinates":[116.5025514,39.73265104,1]}},{"type":"Feature","properties":{"Name":"融兴北二街与瑞合西一路交叉路口"},"geometry":{"type":"Point","coordinates":[116.50660432,39.73447232,1]}},{"type":"Feature","properties":{"Name":"融兴北二街与瑞合路交叉路口"},"geometry":{"type":"Point","coordinates":[116.50989012,39.73593929,1]}},{"type":"Feature","properties":{"Name":"融兴北二街与瑞合东一路交叉路口"},"geometry":{"type":"Point","coordinates":[116.5148601,39.73699705,1]}},{"type":"Feature","properties":{"Name":"融兴北二街与瑞合东二路交叉路口"},"geometry":{"type":"Point","coordinates":[116.51934347,39.73763354,1]}},{"type":"Feature","properties":{"Name":"融兴北二街与亦柏路交叉路口"},"geometry":{"type":"Point","coordinates":[116.52805018,39.73950231,1]}},{"type":"Feature","properties":{"Name":"融兴北一街与瑞合路交叉路口"},"geometry":{"type":"Point","coordinates":[116.51081082,39.73234109,1]}},{"type":"Feature","properties":{"Name":"融兴北一街与瑞合东二路交叉路口"},"geometry":{"type":"Point","coordinates":[116.51992085,39.73421011,1]}},{"type":"Feature","properties":{"Name":"融兴北一街与亦柏路交叉路口"},"geometry":{"type":"Point","coordinates":[116.52877328,39.73549805,1]}},{"type":"Feature","properties":{"Name":"融兴街与三海子东路交叉路口"},"geometry":{"type":"Point","coordinates":[116.50331024,39.72599192,1]}},{"type":"Feature","properties":{"Name":"融兴街与瑞合西二路交叉路口"},"geometry":{"type":"Point","coordinates":[116.50617231,39.72706132,1]}},{"type":"Feature","properties":{"Name":"融兴街与瑞合路交叉路口"},"geometry":{"type":"Point","coordinates":[116.51169086,39.72890021,1]}},{"type":"Feature","properties":{"Name":"融兴街与瑞合东一路交叉路口"},"geometry":{"type":"Point","coordinates":[116.51612298,39.72970215,1]}},{"type":"Feature","properties":{"Name":"融兴街与瑞合东二路交叉路口"},"geometry":{"type":"Point","coordinates":[116.52071459,39.73039564,1]}},{"type":"Feature","properties":{"Name":"融兴街与瑞合东三路交叉路口"},"geometry":{"type":"Point","coordinates":[116.52493328,39.73119554,1]}},{"type":"Feature","properties":{"Name":"融兴街与亦柏路交叉路口"},"geometry":{"type":"Point","coordinates":[116.52931241,39.73214602,1]}},{"type":"Feature","properties":{"Name":"融兴南二街与瑞合西二路交叉路口"},"geometry":{"type":"Point","coordinates":[116.50818308,39.72403145,1]}},{"type":"Feature","properties":{"Name":"融兴南二街与瑞合西一路交叉路口"},"geometry":{"type":"Point","coordinates":[116.51054087,39.72466328,1]}},{"type":"Feature","properties":{"Name":"融兴南二街与瑞合路交叉路口"},"geometry":{"type":"Point","coordinates":[116.51254407,39.72526631,1]}},{"type":"Feature","properties":{"Name":"融兴南三街与瑞合路交叉路口"},"geometry":{"type":"Point","coordinates":[116.51341103,39.72193216,1]}},{"type":"Feature","properties":{"Name":"荣昌西街与景园北街交叉路口"},"geometry":{"type":"Point","coordinates":[116.52485775,39.78373566,1]}},{"type":"Feature","properties":{"Name":"科创街与经海五路交叉路口"},"geometry":{"type":"Point","coordinates":[116.56266899,39.80408101,1]}},{"type":"Feature","properties":{"Name":"科创街与经海六路交叉路口"},"geometry":{"type":"Point","coordinates":[116.56633498,39.80574122,1]}},{"type":"Feature","properties":{"Name":"科创街与经海七路交叉路口"},"geometry":{"type":"Point","coordinates":[116.56941684,39.8071962,1]}},{"type":"Feature","properties":{"Name":"科创一街与经海一路交叉路口"},"geometry":{"type":"Point","coordinates":[116.52404652,39.82009064,1]}},{"type":"Feature","properties":{"Name":"科创一街与经海二路交叉路口"},"geometry":{"type":"Point","coordinates":[116.52787564,39.8218612,1]}},{"type":"Feature","properties":{"Name":"科创一街与双羊街交叉路口"},"geometry":{"type":"Point","coordinates":[116.5306825,39.823071,1]}},{"type":"Feature","properties":{"Name":"科创一街与经海三路交叉路口"},"geometry":{"type":"Point","coordinates":[116.53265451,39.82393445,1]}},{"type":"Feature","properties":{"Name":"科创一街与经海四路交叉路口"},"geometry":{"type":"Point","coordinates":[116.53552965,39.82519169,1]}},{"type":"Feature","properties":{"Name":"科创二街与经海二路交叉路口"},"geometry":{"type":"Point","coordinates":[116.53055031,39.81885406,1]}},{"type":"Feature","properties":{"Name":"科创二街与迪兴路交叉路口"},"geometry":{"type":"Point","coordinates":[116.53192274,39.81951482,1]}},{"type":"Feature","properties":{"Name":"科创二街与双羊路交叉路口"},"geometry":{"type":"Point","coordinates":[116.53326669,39.82014774,1]}},{"type":"Feature","properties":{"Name":"科创二街与经海三路交叉路口"},"geometry":{"type":"Point","coordinates":[116.53521485,39.8210765,1]}},{"type":"Feature","properties":{"Name":"科创二街与经海四路交叉路口"},"geometry":{"type":"Point","coordinates":[116.53790492,39.82233236,1]}},{"type":"Feature","properties":{"Name":"科创二街与经海路交叉路口"},"geometry":{"type":"Point","coordinates":[116.54116266,39.82377409,1]}},{"type":"Feature","properties":{"Name":"科创三街与经海一路交叉路口"},"geometry":{"type":"Point","coordinates":[116.53027155,39.81464313,1]}},{"type":"Feature","properties":{"Name":"科创三街与经海二路交叉路口"},"geometry":{"type":"Point","coordinates":[116.53309587,39.81597063,1]}},{"type":"Feature","properties":{"Name":"科创三街与双羊路交叉路口"},"geometry":{"type":"Point","coordinates":[116.53581797,39.81726373,1]}},{"type":"Feature","properties":{"Name":"科创三街与经海三路交叉路口"},"geometry":{"type":"Point","coordinates":[116.53769474,39.81812903,1]}},{"type":"Feature","properties":{"Name":"科创三街与经海四路交叉路口"},"geometry":{"type":"Point","coordinates":[116.54036788,39.81934943,1]}},{"type":"Feature","properties":{"Name":"科创三街与经海路交叉路口"},"geometry":{"type":"Point","coordinates":[116.54367394,39.8208893,1]}},{"type":"Feature","properties":{"Name":"科创街与经海八路交叉路口"},"geometry":{"type":"Point","coordinates":[116.57187311,39.80923528,1]}},{"type":"Feature","properties":{"Name":"潞西路与经海八路交叉路口"},"geometry":{"type":"Point","coordinates":[116.57258897,39.80864729,1]}},{"type":"Feature","properties":{"Name":"科创九街与经海八路交叉路口"},"geometry":{"type":"Point","coordinates":[116.5752311,39.80566019,1]}},{"type":"Feature","properties":{"Name":"凉水河一街与博兴六路交叉路口"},"geometry":{"type":"Point","coordinates":[116.5166144,39.77431782,1]}},{"type":"Feature","properties":{"Name":"兴海三街与博兴七路交叉路口"},"geometry":{"type":"Point","coordinates":[116.5048772,39.74771977,1]}},{"type":"Feature","properties":{"Name":"凉水河一街与博兴七路交叉路口"},"geometry":{"type":"Point","coordinates":[116.51242874,39.77537437,1]}},{"type":"Feature","properties":{"Name":"兴海路与博兴一路交叉路口"},"geometry":{"type":"Point","coordinates":[116.53186341,39.75256378,1]}},{"type":"Feature","properties":{"Name":"融兴北一街与瑞合东三路交叉路口"},"geometry":{"type":"Point","coordinates":[116.52437711,39.73486874,1]}},{"type":"Feature","properties":{"Name":"融兴北一街与瑞合东一路交叉路口"},"geometry":{"type":"Point","coordinates":[116.51547709,39.73343812,1]}},{"type":"Feature","properties":{"Name":"融兴北一街与瑞合西一路交叉路口"},"geometry":{"type":"Point","coordinates":[116.50788436,39.73121836,1]}},{"type":"Feature","properties":{"Name":"融兴北一街与瑞合西二路交叉路口"},"geometry":{"type":"Point","coordinates":[116.50445026,39.7298339,1]}},{"type":"Feature","properties":{"Name":"融兴街与瑞合西一路交叉路口"},"geometry":{"type":"Point","coordinates":[116.50909514,39.72818443,1]}},{"type":"Feature","properties":{"Name":"凉水河二街与博兴九路交叉路口"},"geometry":{"type":"Point","coordinates":[116.50389133,39.77443292,1]}},{"type":"Feature","properties":{"Name":"兴海一街与三海子东路交叉路口"},"geometry":{"type":"Point","coordinates":[116.48883287,39.75516839,1]}},{"type":"Feature","properties":{"Name":"兴海二街与三海子东路交叉路口"},"geometry":{"type":"Point","coordinates":[116.48953916,39.75107759,1]}},{"type":"Feature","properties":{"Name":"兴海二街与四海路交叉路口"},"geometry":{"type":"Point","coordinates":[116.49255109,39.75107181,1]}},{"type":"Feature","properties":{"Name":"科谷五街与经惠东路交叉路口"},"geometry":{"type":"Point","coordinates":[116.59448946,39.78476952,1]}},{"type":"Feature","properties":{"Name":"科创四街与经海二路交叉路口(一)"},"geometry":{"type":"Point","coordinates":[116.53561011,39.81301077,1]}},{"type":"Feature","properties":{"Name":"科创十二街与经惠东路交叉路口"},"geometry":{"type":"Point","coordinates":[116.58317626,39.79717811,1]}},{"type":"Feature","properties":{"Name":"科谷五街与经惠西路交叉路口"},"geometry":{"type":"Point","coordinates":[116.59242619,39.78413362,1]}},{"type":"Feature","properties":{"Name":"宝善街与三海子东路交叉路口"},"geometry":{"type":"Point","coordinates":[116.48796586,39.76791528,1]}},{"type":"Feature","properties":{"Name":"文化园东路与东环北路交叉路口"},"geometry":{"type":"Point","coordinates":[116.5134092,39.81999762,1]}},{"type":"Feature","properties":{"Name":"文化园东路与东环北路东边路口"},"geometry":{"type":"Point","coordinates":[116.5142713,39.82033555,1]}},{"type":"Feature","properties":{"Name":"万源街与同济北路北边路口"},"geometry":{"type":"Point","coordinates":[116.51751685,39.81717204,1]}},{"type":"Feature","properties":{"Name":"文昌大道与地泽南街西南边路口"},"geometry":{"type":"Point","coordinates":[116.51116045,39.78402339,1]}},{"type":"Feature","properties":{"Name":"文昌大道与地泽南街西北边路口"},"geometry":{"type":"Point","coordinates":[116.5122735,39.78783468,1]}},{"type":"Feature","properties":{"Name":"泰河一街与博兴三路西北边路口"},"geometry":{"type":"Point","coordinates":[116.52739466,39.76162847,1]}},{"type":"Feature","properties":{"Name":"姜场街与三海子东路西边路口"},"geometry":{"type":"Point","coordinates":[116.48626,39.76486627,1]}},{"type":"Feature","properties":{"Name":"融兴街与瑞合东二路南边路口"},"geometry":{"type":"Point","coordinates":[116.52083967,39.72981995,1]}},{"type":"Feature","properties":{"Name":"融兴街与瑞合东三路南边路口"},"geometry":{"type":"Point","coordinates":[116.52520095,39.73010747,1]}},{"type":"Feature","properties":{"Name":"融兴南二街与瑞合路东边路口"},"geometry":{"type":"Point","coordinates":[116.51330775,39.72545315,1]}},{"type":"Feature","properties":{"Name":"融兴南三街与瑞合路东边路口"},"geometry":{"type":"Point","coordinates":[116.51533101,39.72192633,1]}},{"type":"Feature","properties":{"Name":"融兴南三街与瑞合路南边路口"},"geometry":{"type":"Point","coordinates":[116.51411919,39.71895555,1]}},{"type":"Feature","properties":{"Name":"融兴南三街与瑞合路西边路口"},"geometry":{"type":"Point","coordinates":[116.51124697,39.72157493,1]}},{"type":"Feature","properties":{"Name":"兴海二街与四海路北边路口"},"geometry":{"type":"Point","coordinates":[116.49225861,39.75502454,1]}},{"type":"Feature","properties":{"Name":"兴海二街与四海路南边路口"},"geometry":{"type":"Point","coordinates":[116.492836,39.75082791,1]}},{"type":"Feature","properties":{"Name":"地盛北街与地盛西路东南边路口"},"geometry":{"type":"Point","coordinates":[116.50918244,39.78838835,1]}},{"type":"Feature","properties":{"Name":"文昌大道与地盛东路北边路口"},"geometry":{"type":"Point","coordinates":[116.51409344,39.79497455,1]}},{"type":"Feature","properties":{"Name":"地泽西街与地泽南街南边路口"},"geometry":{"type":"Point","coordinates":[116.51441935,39.78327231,1]}},{"type":"Feature","properties":{"Name":"地泽东街与地泽路南边路口"},"geometry":{"type":"Point","coordinates":[116.51980242,39.78191256,1]}},{"type":"Feature","properties":{"Name":"科创四街与经海四路东边路口"},"geometry":{"type":"Point","coordinates":[116.54621006,39.8178134,1]}},{"type":"Feature","properties":{"Name":"科创六街与经海路东边路口"},"geometry":{"type":"Point","coordinates":[116.55533976,39.81310909,1]}},{"type":"Feature","properties":{"Name":"科创七街与经海路东边路口"},"geometry":{"type":"Point","coordinates":[116.55764446,39.81026061,1]}},{"type":"Feature","properties":{"Name":"科创八街与经海二路东南边路口"},"geometry":{"type":"Point","coordinates":[116.5494566,39.79788273,1]}},{"type":"Feature","properties":{"Name":"科创八街与经海路东边路口"},"geometry":{"type":"Point","coordinates":[116.56011439,39.80719453,1]}},{"type":"Feature","properties":{"Name":"科创十一街与经海七路交叉路口"},"geometry":{"type":"Point","coordinates":[116.57759601,39.79829321,1]}},{"type":"Feature","properties":{"Name":"科创十一街与通惠干渠路东边路口"},"geometry":{"type":"Point","coordinates":[116.5834832,39.80145855,1]}},{"type":"Feature","properties":{"Name":"科创十二街与经惠东路北边路口"},"geometry":{"type":"Point","coordinates":[116.58201414,39.80057086,1]}},{"type":"Feature","properties":{"Name":"科谷三街与经惠东路东边路口"},"geometry":{"type":"Point","coordinates":[116.59325684,39.79098656,1]}},{"type":"Feature","properties":{"Name":"科创十七街与经海路南边路口"},"geometry":{"type":"Point","coordinates":[116.57895388,39.77431099,1]}},{"type":"Feature","properties":{"Name":"科创十六街与通惠干渠路西边路口"},"geometry":{"type":"Point","coordinates":[116.57798378,39.78125435,1]}},{"type":"Feature","properties":{"Name":"科谷四街与经海九路南边路口"},"geometry":{"type":"Point","coordinates":[116.59780592,39.78604228,1]}},{"type":"Feature","properties":{"Name":"科创十七街与经惠西路东边路口"},"geometry":{"type":"Point","coordinates":[116.60025024,39.78333329,1]}},{"type":"Feature","properties":{"Name":"凉水河路与博兴路北边路口"},"geometry":{"type":"Point","coordinates":[116.52351481,39.78042283,1]}},{"type":"Feature","properties":{"Name":"凉水河路与博兴路西边路口"},"geometry":{"type":"Point","coordinates":[116.51003552,39.78098936,1]}},{"type":"Feature","properties":{"Name":"科创十二街与经海九路南边路口"},"geometry":{"type":"Point","coordinates":[116.5883565,39.79613229,1]}},{"type":"Feature","properties":{"Name":"凉水河二街与博兴一路东边路口"},"geometry":{"type":"Point","coordinates":[116.54260579,39.7627807,1]}},{"type":"Feature","properties":{"Name":"黄亦路与三海子东路西边路口"},"geometry":{"type":"Point","coordinates":[116.48392592,39.77193617,1]}},{"type":"Feature","properties":{"Name":"黄亦路与四合路北边路口"},"geometry":{"type":"Point","coordinates":[116.50068444,39.77525479,1]}},{"type":"Feature","properties":{"Name":"泰河路与新凤河路东边路口"},"geometry":{"type":"Point","coordinates":[116.54343984,39.75947269,1]}},{"type":"Feature","properties":{"Name":"宝善街与博兴八路交叉路口"},"geometry":{"type":"Point","coordinates":[116.50479428,39.7675218,1]}},{"type":"Feature","properties":{"Name":"泰河一街与博林路北边路口"},"geometry":{"type":"Point","coordinates":[116.53319676,39.76164507,1]}},{"type":"Feature","properties":{"Name":"姜场街与四合路东边路口"},"geometry":{"type":"Point","coordinates":[116.50380642,39.76455881,1]}},{"type":"Feature","properties":{"Name":"千顷堂街与四合路东边路口"},"geometry":{"type":"Point","coordinates":[116.50276544,39.76149568,1]}},{"type":"Feature","properties":{"Name":"泰河三街与博兴二路北边路口"},"geometry":{"type":"Point","coordinates":[116.52913359,39.75768328,1]}},{"type":"Feature","properties":{"Name":"博兴八路路口"},"geometry":{"type":"Point","coordinates":[116.50191754,39.75469066,1]}},{"type":"Feature","properties":{"Name":"博兴六路路口"},"geometry":{"type":"Point","coordinates":[116.50815743,39.75308516,1]}},{"type":"Feature","properties":{"Name":"兴亦路与四合路南边路口"},"geometry":{"type":"Point","coordinates":[116.49829481,39.7427464,1]}},{"type":"Feature","properties":{"Name":"六环路与瑞合路东边路口"},"geometry":{"type":"Point","coordinates":[116.52332427,39.74600443,1]}},{"type":"Feature","properties":{"Name":"六环路与瑞合路西边路口"},"geometry":{"type":"Point","coordinates":[116.50526794,39.74250153,1]}},{"type":"Feature","properties":{"Name":"无名路口"},"geometry":{"type":"Point","coordinates":[116.50004944,39.73645469,1]}},{"type":"Feature","properties":{"Name":"融兴北三街与瑞合西二路西边路口"},"geometry":{"type":"Point","coordinates":[116.49776833,39.73382741,1]}},{"type":"Feature","properties":{"Name":"融兴北三街与亦柏路东边路口"},"geometry":{"type":"Point","coordinates":[116.53040736,39.74364705,1]}},{"type":"Feature","properties":{"Name":"融兴北三街与亦柏路北边路口"},"geometry":{"type":"Point","coordinates":[116.52689413,39.74626089,1]}},{"type":"Feature","properties":{"Name":"融兴街与三海子东路南边路口"},"geometry":{"type":"Point","coordinates":[116.50524833,39.72320037,1]}},{"type":"Feature","properties":{"Name":"融兴街与亦柏路南边路口"},"geometry":{"type":"Point","coordinates":[116.52963432,39.73001519,1]}},{"type":"Feature","properties":{"Name":"科创街与经海六路北边路口"},"geometry":{"type":"Point","coordinates":[116.56374017,39.80890103,1]}},{"type":"Feature","properties":{"Name":"科创街与经海七路北边路口"},"geometry":{"type":"Point","coordinates":[116.56664712,39.81026121,1]}},{"type":"Feature","properties":{"Name":"科创一街与经海一路北边路口"},"geometry":{"type":"Point","coordinates":[116.52133249,39.82315297,1]}},{"type":"Feature","properties":{"Name":"科创一街与经海二路北边路口"},"geometry":{"type":"Point","coordinates":[116.52672944,39.82422145,1]}},{"type":"Feature","properties":{"Name":"科创一街与经海四路北边路口"},"geometry":{"type":"Point","coordinates":[116.53381255,39.82726876,1]}},{"type":"Feature","properties":{"Name":"科创一街与经海四路东边路口"},"geometry":{"type":"Point","coordinates":[116.53887271,39.82670332,1]}},{"type":"Feature","properties":{"Name":"科创二街与经海二路西边路口"},"geometry":{"type":"Point","coordinates":[116.52841941,39.81778017,1]}},{"type":"Feature","properties":{"Name":"科创二街与迪兴路北边路口"},"geometry":{"type":"Point","coordinates":[116.53109254,39.82044502,1]}},{"type":"Feature","properties":{"Name":"科创二街与迪兴路南边路口"},"geometry":{"type":"Point","coordinates":[116.53320849,39.81805762,1]}},{"type":"Feature","properties":{"Name":"科创二街与经海路东边路口"},"geometry":{"type":"Point","coordinates":[116.54336584,39.82476024,1]}},{"type":"Feature","properties":{"Name":"科创三街与经海一路西南边路口"},"geometry":{"type":"Point","coordinates":[116.52998556,39.81455817,1]}},{"type":"Feature","properties":{"Name":"科创三街与经海路东边路口"},"geometry":{"type":"Point","coordinates":[116.55126651,39.8241415,1]}},{"type":"Feature","properties":{"Name":"科创街与经海八路东边路口"},"geometry":{"type":"Point","coordinates":[116.57359617,39.81154741,1]}},{"type":"Feature","properties":{"Name":"潞西路与经海八路东边路口"},"geometry":{"type":"Point","coordinates":[116.57621594,39.80861746,1]}},{"type":"Feature","properties":{"Name":"兴海三街与博兴七路西边路口"},"geometry":{"type":"Point","coordinates":[116.5020425,39.74763744,1]}},{"type":"Feature","properties":{"Name":"兴海三街与博兴七路东边路口"},"geometry":{"type":"Point","coordinates":[116.50765339,39.74779895,1]}},{"type":"Feature","properties":{"Name":"兴海二街与博兴七路西边路口"},"geometry":{"type":"Point","coordinates":[116.50196224,39.75103783,1]}},{"type":"Feature","properties":{"Name":"融兴北一街与瑞合西二路西边路口"},"geometry":{"type":"Point","coordinates":[116.50142718,39.72863365,1]}},{"type":"Feature","properties":{"Name":"兴海二街与三海子东路南边路口"},"geometry":{"type":"Point","coordinates":[116.49047066,39.74726844,1]}},{"type":"Feature","properties":{"Name":"兴海二街与三海子东路西边路口"},"geometry":{"type":"Point","coordinates":[116.48731259,39.75109131,1]}}]}