{"type":"FeatureCollection","name":"BXF_OBJ","crs":{"type":"name","properties":{"name":"urn:ogc:def:crs:OGC:1.3:CRS84"}},"features":[{"type":"Feature","properties":{"Name":"大族广场"},"geometry":{"type":"Point","coordinates":[116.51980896,39.79954436,100]}},{"type":"Feature","properties":{"Name":"北开电气"},"geometry":{"type":"Point","coordinates":[116.53511065,39.78406848,30]}},{"type":"Feature","properties":{"Name":"北京经济技术开发区"},"geometry":{"type":"Point","coordinates":[116.51340201,39.80125603,100]}},{"type":"Feature","properties":{"Name":"亦庄交警大队"},"geometry":{"type":"Point","coordinates":[116.54177537,39.81618427,50]}},{"type":"Feature","properties":{"Name":"京东"},"geometry":{"type":"Point","coordinates":[116.56962673,39.79265129,140]}},{"type":"Feature","properties":{"Name":"永晖大厦"},"geometry":{"type":"Point","coordinates":[116.52519582,39.79439936,30]}}]}